{
"type": "FeatureCollection",
"crs": { "type": "name", "properties": { "name": "urn:ogc:def:crs:OGC:1.3:CRS84" } },
                                                                                
"features": [
{ "type": "Feature", "properties": { "OBJECTID_1": 1, "LIB_NAME": "꿈꾸는 작은도서관", "ADDR": "금천구 시흥3동 956-3", "OPEN_DAY": "1995.3.1", "LBCE": "12", "LB_TYPE": "작은도서관", "MNG_INSTIT": null, "FCLT_AREA": 34.000000, "REMARK": null, "BOOK_COUNT": "5,176", "AREA_PLOT": null, "AREA_BUILD": 34.000000 }, "geometry": { "type": "Point", "coordinates": [ 126.90582607286208, 37.440278423063461 ] } },
{ "type": "Feature", "properties": { "OBJECTID_1": 2, "LIB_NAME": "금천구립시흥도서관", "ADDR": "금천구 시흥동 267-9", "OPEN_DAY": "‘13.10.21", "LBCE": "164", "LB_TYPE": "구립", "MNG_INSTIT": "금천구시설관리공단", "FCLT_AREA": 3300.000000, "REMARK": null, "BOOK_COUNT": "25,000", "AREA_PLOT": null, "AREA_BUILD": 3300.000000 }, "geometry": { "type": "Point", "coordinates": [ 126.91450738196193, 37.449615924906205 ] } },
{ "type": "Feature", "properties": { "OBJECTID_1": 3, "LIB_NAME": "은행나무어린이도서관", "ADDR": "금천구 시흥5동 922-1", "OPEN_DAY": "2002.10.18", "LBCE": "25", "LB_TYPE": "작은도서관", "MNG_INSTIT": null, "FCLT_AREA": 58.000000, "REMARK": null, "BOOK_COUNT": "9,275", "AREA_PLOT": null, "AREA_BUILD": 58.000000 }, "geometry": { "type": "Point", "coordinates": [ 126.90611673985239, 37.450020419740241 ] } },
{ "type": "Feature", "properties": { "OBJECTID_1": 4, "LIB_NAME": "책읽는주민사랑방", "ADDR": "금천구 시흥동 832-14", "OPEN_DAY": "1995.3.1", "LBCE": "10", "LB_TYPE": "작은도서관", "MNG_INSTIT": null, "FCLT_AREA": 33.000000, "REMARK": null, "BOOK_COUNT": "5,332", "AREA_PLOT": null, "AREA_BUILD": 33.000000 }, "geometry": { "type": "Point", "coordinates": [ 126.90830184816467, 37.452353957680415 ] } },
{ "type": "Feature", "properties": { "OBJECTID_1": 5, "LIB_NAME": "나누리작은도서관", "ADDR": "금천구 시흥동 825", "OPEN_DAY": "2006.1.31", "LBCE": "30", "LB_TYPE": "작은도서관", "MNG_INSTIT": null, "FCLT_AREA": 100.000000, "REMARK": null, "BOOK_COUNT": "6,715", "AREA_PLOT": null, "AREA_BUILD": 100.000000 }, "geometry": { "type": "Point", "coordinates": [ 126.9089157816901, 37.453082450977 ] } },
{ "type": "Feature", "properties": { "OBJECTID_1": 6, "LIB_NAME": "맑은누리 작은도서관", "ADDR": "금천구 시흥1동 886-6", "OPEN_DAY": "1995.3.1", "LBCE": "12", "LB_TYPE": "작은도서관", "MNG_INSTIT": null, "FCLT_AREA": 99.000000, "REMARK": null, "BOOK_COUNT": "7,814", "AREA_PLOT": null, "AREA_BUILD": 99.000000 }, "geometry": { "type": "Point", "coordinates": [ 126.90325518332169, 37.453557291680966 ] } },
{ "type": "Feature", "properties": { "OBJECTID_1": 7, "LIB_NAME": "새재미문고", "ADDR": "금천구 시흥4동 817-1", "OPEN_DAY": "2006.10.4", "LBCE": "10", "LB_TYPE": "작은도서관", "MNG_INSTIT": null, "FCLT_AREA": 60.000000, "REMARK": null, "BOOK_COUNT": "3,300", "AREA_PLOT": null, "AREA_BUILD": 60.000000 }, "geometry": { "type": "Point", "coordinates": [ 126.90698609419603, 37.456187639975496 ] } },
{ "type": "Feature", "properties": { "OBJECTID_1": 8, "LIB_NAME": "금나래아트홀도서관", "ADDR": "금천구 시흥대로73길 70", "OPEN_DAY": "‘08.11.1", "LBCE": "321", "LB_TYPE": "구립", "MNG_INSTIT": "금천구시설관리공단", "FCLT_AREA": 918.000000, "REMARK": null, "BOOK_COUNT": "37,507", "AREA_PLOT": null, "AREA_BUILD": 918.000000 }, "geometry": { "type": "Point", "coordinates": [ 126.89603515570134, 37.457065109854959 ] } },
{ "type": "Feature", "properties": { "OBJECTID_1": 9, "LIB_NAME": "산돌어린이도서관", "ADDR": "금천구 시흥1동 108-23 산돌문화센타 2층", "OPEN_DAY": "2004.8.31", "LBCE": "50", "LB_TYPE": "작은도서관", "MNG_INSTIT": null, "FCLT_AREA": 132.000000, "REMARK": null, "BOOK_COUNT": "14,400", "AREA_PLOT": null, "AREA_BUILD": 132.000000 }, "geometry": { "type": "Point", "coordinates": [ 126.89843955736858, 37.457633036300109 ] } },
{ "type": "Feature", "properties": { "OBJECTID_1": 10, "LIB_NAME": "참새작은도서관", "ADDR": "금천구 독산동 1088-1", "OPEN_DAY": "2013.4.1", "LBCE": "72", "LB_TYPE": "작은도서관", "MNG_INSTIT": null, "FCLT_AREA": 75.600000, "REMARK": null, "BOOK_COUNT": "3,993", "AREA_PLOT": null, "AREA_BUILD": 75.600000 }, "geometry": { "type": "Point", "coordinates": [ 126.88686540072894, 37.457845973964254 ] } },
{ "type": "Feature", "properties": { "OBJECTID_1": 11, "LIB_NAME": "숲속 작은도서관", "ADDR": "관악구 대학동 산50-2", "OPEN_DAY": "2008.10.", "LBCE": "60", "LB_TYPE": "작은도서관", "MNG_INSTIT": null, "FCLT_AREA": 80.000000, "REMARK": null, "BOOK_COUNT": "2,161", "AREA_PLOT": null, "AREA_BUILD": 80.000000 }, "geometry": { "type": "Point", "coordinates": [ 126.9461807269056, 37.4589078180176 ] } },
{ "type": "Feature", "properties": { "OBJECTID_1": 12, "LIB_NAME": "도란도란 작은도서관", "ADDR": "금천구 시흥4동 812-38", "OPEN_DAY": "1995.3.1", "LBCE": "14", "LB_TYPE": "작은도서관", "MNG_INSTIT": null, "FCLT_AREA": 62.000000, "REMARK": null, "BOOK_COUNT": "5,759", "AREA_PLOT": null, "AREA_BUILD": 62.000000 }, "geometry": { "type": "Point", "coordinates": [ 126.90615079618931, 37.458944077227414 ] } },
{ "type": "Feature", "properties": { "OBJECTID_1": 13, "LIB_NAME": "수도방위사령부", "ADDR": "관악구 남현동 산 100-14 수도방위사령부", "OPEN_DAY": "2004.6.", "LBCE": "6", "LB_TYPE": "작은도서관", "MNG_INSTIT": null, "FCLT_AREA": 44.000000, "REMARK": null, "BOOK_COUNT": "8,198", "AREA_PLOT": null, "AREA_BUILD": 44.000000 }, "geometry": { "type": "Point", "coordinates": [ 126.98161714218077, 37.459033972754987 ] } },
{ "type": "Feature", "properties": { "OBJECTID_1": 14, "LIB_NAME": "신흥초", "ADDR": "금천구 독산로36나길21", "OPEN_DAY": "‘08. 3", "LBCE": "0", "LB_TYPE": "학교도서관개방", "MNG_INSTIT": "금천", "FCLT_AREA": 175.000000, "REMARK": null, "BOOK_COUNT": "19,513", "AREA_PLOT": null, "AREA_BUILD": 175.000000 }, "geometry": { "type": "Point", "coordinates": [ 126.9093512555293, 37.459346624853708 ] } },
{ "type": "Feature", "properties": { "OBJECTID_1": 15, "LIB_NAME": "휴먼시아 도서관", "ADDR": "서울  관악구 신림동 1735", "OPEN_DAY": "2011.6", "LBCE": "0", "LB_TYPE": "작은도서관", "MNG_INSTIT": null, "FCLT_AREA": 0.000000, "REMARK": "휴관", "BOOK_COUNT": null, "AREA_PLOT": null, "AREA_BUILD": 0.000000 }, "geometry": { "type": "Point", "coordinates": [ 126.91966799984421, 37.459374999661172 ] } },
{ "type": "Feature", "properties": { "OBJECTID_1": 16, "LIB_NAME": "난향동 뜰안에 작은도서관", "ADDR": "관악구 난향동 1735-5", "OPEN_DAY": "1994.3.", "LBCE": "20", "LB_TYPE": "작은도서관", "MNG_INSTIT": null, "FCLT_AREA": 80.000000, "REMARK": null, "BOOK_COUNT": "8,134", "AREA_PLOT": null, "AREA_BUILD": 80.000000 }, "geometry": { "type": "Point", "coordinates": [ 126.9187392869286, 37.461530297957033 ] } },
{ "type": "Feature", "properties": { "OBJECTID_1": 17, "LIB_NAME": "지혜의숲", "ADDR": "금천구 독산2동 호정길15", "OPEN_DAY": "2006.3.27", "LBCE": "24", "LB_TYPE": "작은도서관", "MNG_INSTIT": null, "FCLT_AREA": 59.000000, "REMARK": null, "BOOK_COUNT": "7,300", "AREA_PLOT": null, "AREA_BUILD": 59.000000 }, "geometry": { "type": "Point", "coordinates": [ 126.8992929456908, 37.461814461898214 ] } },
{ "type": "Feature", "properties": { "OBJECTID_1": 18, "LIB_NAME": "내곡동 작은도서관", "ADDR": "서초구 염곡동 180-11", "OPEN_DAY": "2000..", "LBCE": "11", "LB_TYPE": "작은도서관", "MNG_INSTIT": null, "FCLT_AREA": 51.000000, "REMARK": null, "BOOK_COUNT": "10,739", "AREA_PLOT": null, "AREA_BUILD": 51.000000 }, "geometry": { "type": "Point", "coordinates": [ 127.05117648395824, 37.461929184519242 ] } },
{ "type": "Feature", "properties": { "OBJECTID_1": 19, "LIB_NAME": "우면SH작은도서관", "ADDR": "서초구 우면동 712", "OPEN_DAY": "2012.7.20", "LBCE": "16", "LB_TYPE": "작은도서관", "MNG_INSTIT": null, "FCLT_AREA": 100.400000, "REMARK": null, "BOOK_COUNT": "5,000", "AREA_PLOT": null, "AREA_BUILD": 100.400000 }, "geometry": { "type": "Point", "coordinates": [ 127.02163913917734, 37.462774423550492 ] } },
{ "type": "Feature", "properties": { "OBJECTID_1": 20, "LIB_NAME": "난곡주민도서관 새숲", "ADDR": "관악구 난향동 673-23 정산빌딩 3층", "OPEN_DAY": "1989.10.", "LBCE": "16", "LB_TYPE": "작은도서관", "MNG_INSTIT": null, "FCLT_AREA": 79.000000, "REMARK": null, "BOOK_COUNT": "15,500", "AREA_PLOT": null, "AREA_BUILD": 79.000000 }, "geometry": { "type": "Point", "coordinates": [ 126.9173046617601, 37.462787115039532 ] } },
{ "type": "Feature", "properties": { "OBJECTID_1": 21, "LIB_NAME": "네이처힐5단지작은도서관", "ADDR": "서초구 우면동 730 서초네이처힐 508동 1층", "OPEN_DAY": "2012.9.17", "LBCE": "20", "LB_TYPE": "작은도서관", "MNG_INSTIT": null, "FCLT_AREA": 73.900000, "REMARK": null, "BOOK_COUNT": "3,283", "AREA_PLOT": null, "AREA_BUILD": 73.900000 }, "geometry": { "type": "Point", "coordinates": [ 127.02421636973848, 37.46297935420813 ] } },
{ "type": "Feature", "properties": { "OBJECTID_1": 22, "LIB_NAME": "네이처힐3단지작은도서관(꿈찾는도서관)", "ADDR": "서초구 우면동 717", "OPEN_DAY": "2013.7.1", "LBCE": "30", "LB_TYPE": "작은도서관", "MNG_INSTIT": null, "FCLT_AREA": 183.980000, "REMARK": null, "BOOK_COUNT": "6,000", "AREA_PLOT": null, "AREA_BUILD": 183.980000 }, "geometry": { "type": "Point", "coordinates": [ 127.02794234963019, 37.464012893338378 ] } },
{ "type": "Feature", "properties": { "OBJECTID_1": 23, "LIB_NAME": "삼성작은도서관", "ADDR": "관악구 삼성동 310-8번지 1층", "OPEN_DAY": "2009.12.", "LBCE": "20", "LB_TYPE": "작은도서관", "MNG_INSTIT": null, "FCLT_AREA": 89.000000, "REMARK": null, "BOOK_COUNT": "9,642", "AREA_PLOT": null, "AREA_BUILD": 89.000000 }, "geometry": { "type": "Point", "coordinates": [ 126.93182608479415, 37.464025364374542 ] } },
{ "type": "Feature", "properties": { "OBJECTID_1": 24, "LIB_NAME": "네이처힐4단지작은도서관", "ADDR": "서초구 우면동 720", "OPEN_DAY": "2012.10.1", "LBCE": "8", "LB_TYPE": "작은도서관", "MNG_INSTIT": null, "FCLT_AREA": 33.000000, "REMARK": null, "BOOK_COUNT": "2,157", "AREA_PLOT": null, "AREA_BUILD": 33.000000 }, "geometry": { "type": "Point", "coordinates": [ 127.02579019429434, 37.464125108065517 ] } },
{ "type": "Feature", "properties": { "OBJECTID_1": 25, "LIB_NAME": "푸르지오 책사랑", "ADDR": "강남구 세곡동 세곡 LH푸르지오아파트", "OPEN_DAY": "2013.5.20", "LBCE": "66", "LB_TYPE": "작은도서관", "MNG_INSTIT": null, "FCLT_AREA": 203.000000, "REMARK": null, "BOOK_COUNT": "5,103", "AREA_PLOT": null, "AREA_BUILD": 203.000000 }, "geometry": { "type": "Point", "coordinates": [ 127.09372154590606, 37.465334152784386 ] } },
{ "type": "Feature", "properties": { "OBJECTID_1": 26, "LIB_NAME": "다락방 작은도서관", "ADDR": "금천구 독산동 1035-13", "OPEN_DAY": "1995.3.1", "LBCE": "30", "LB_TYPE": "작은도서관", "MNG_INSTIT": null, "FCLT_AREA": 48.000000, "REMARK": null, "BOOK_COUNT": "2,560", "AREA_PLOT": null, "AREA_BUILD": 48.000000 }, "geometry": { "type": "Point", "coordinates": [ 126.89975748567579, 37.466064026041707 ] } },
{ "type": "Feature", "properties": { "OBJECTID_1": 27, "LIB_NAME": "책이든거리작은도서관", "ADDR": "금천구 가산동 717", "OPEN_DAY": "2013.10.8", "LBCE": "16", "LB_TYPE": "작은도서관", "MNG_INSTIT": null, "FCLT_AREA": 45.390000, "REMARK": null, "BOOK_COUNT": "2,503", "AREA_PLOT": null, "AREA_BUILD": 45.390000 }, "geometry": { "type": "Point", "coordinates": [ 126.88943016461272, 37.466152123358349 ] } },
{ "type": "Feature", "properties": { "OBJECTID_1": 28, "LIB_NAME": "관악산 시도서관", "ADDR": "관악구 신림동 1560-23", "OPEN_DAY": "2011.5.", "LBCE": "14", "LB_TYPE": "작은도서관", "MNG_INSTIT": null, "FCLT_AREA": 33.000000, "REMARK": null, "BOOK_COUNT": "4,504", "AREA_PLOT": null, "AREA_BUILD": 33.000000 }, "geometry": { "type": "Point", "coordinates": [ 126.93401221267102, 37.466571061176403 ] } },
{ "type": "Feature", "properties": { "OBJECTID_1": 29, "LIB_NAME": "꿈씨 어린이 작은도서관", "ADDR": "금천구 독산4동 1022", "OPEN_DAY": "1995.3.1", "LBCE": "30", "LB_TYPE": "작은도서관", "MNG_INSTIT": null, "FCLT_AREA": 215.000000, "REMARK": null, "BOOK_COUNT": "10,073", "AREA_PLOT": null, "AREA_BUILD": 215.000000 }, "geometry": { "type": "Point", "coordinates": [ 126.90214742704019, 37.46756170726033 ] } },
{ "type": "Feature", "properties": { "OBJECTID_1": 30, "LIB_NAME": "청개구리작은도서관", "ADDR": "금천구 독산동 1022", "OPEN_DAY": "2012.1.16", "LBCE": "33", "LB_TYPE": "작은도서관", "MNG_INSTIT": null, "FCLT_AREA": 104.000000, "REMARK": null, "BOOK_COUNT": "9,444", "AREA_PLOT": null, "AREA_BUILD": 104.000000 }, "geometry": { "type": "Point", "coordinates": [ 126.90214742704019, 37.46756170726033 ] } },
{ "type": "Feature", "properties": { "OBJECTID_1": 31, "LIB_NAME": "관악문화관·도서관", "ADDR": "관악구 신림로 3길 35", "OPEN_DAY": "‘02.10.11", "LBCE": "501", "LB_TYPE": "구립", "MNG_INSTIT": "관악문화원", "FCLT_AREA": 6322.000000, "REMARK": null, "BOOK_COUNT": "153,213", "AREA_PLOT": "4,363", "AREA_BUILD": 6322.000000 }, "geometry": { "type": "Point", "coordinates": [ 126.94487226895676, 37.467596571091882 ] } },
{ "type": "Feature", "properties": { "OBJECTID_1": 32, "LIB_NAME": "금천구립정보도서관", "ADDR": "금천구 독산로54길 114", "OPEN_DAY": "‘99.2.26", "LBCE": "358", "LB_TYPE": "구립", "MNG_INSTIT": "금천구시설관리공단", "FCLT_AREA": 2205.000000, "REMARK": null, "BOOK_COUNT": "130,008", "AREA_PLOT": "2,540", "AREA_BUILD": 2205.000000 }, "geometry": { "type": "Point", "coordinates": [ 126.90810690916058, 37.467580908078823 ] } },
{ "type": "Feature", "properties": { "OBJECTID_1": 33, "LIB_NAME": "책읽는마을", "ADDR": "금천구 독산동 185-5", "OPEN_DAY": "2007.5.10", "LBCE": "18", "LB_TYPE": "작은도서관", "MNG_INSTIT": null, "FCLT_AREA": 36.000000, "REMARK": null, "BOOK_COUNT": "6,000", "AREA_PLOT": null, "AREA_BUILD": 36.000000 }, "geometry": { "type": "Point", "coordinates": [ 126.90411744620052, 37.468666159229429 ] } },
{ "type": "Feature", "properties": { "OBJECTID_1": 34, "LIB_NAME": "세곡도서관", "ADDR": "강남구 율현동 밤고개로 286", "OPEN_DAY": "2003.6.27", "LBCE": "26", "LB_TYPE": "작은도서관", "MNG_INSTIT": null, "FCLT_AREA": 121.000000, "REMARK": null, "BOOK_COUNT": "29,456", "AREA_PLOT": null, "AREA_BUILD": 121.000000 }, "geometry": { "type": "Point", "coordinates": [ 127.10692055542519, 37.469049527856065 ] } },
{ "type": "Feature", "properties": { "OBJECTID_1": 35, "LIB_NAME": "은천2단지도서관", "ADDR": "관악구 인헌동 1707-1", "OPEN_DAY": "2005.1.3", "LBCE": "30", "LB_TYPE": "작은도서관", "MNG_INSTIT": null, "FCLT_AREA": 69.000000, "REMARK": null, "BOOK_COUNT": "7,500", "AREA_PLOT": null, "AREA_BUILD": 69.000000 }, "geometry": { "type": "Point", "coordinates": [ 126.96456285023461, 37.469975577148041 ] } },
{ "type": "Feature", "properties": { "OBJECTID_1": 36, "LIB_NAME": "삼성동 샛별 작은도서관", "ADDR": "관악구 삼성동 1528번지", "OPEN_DAY": "1992.8.", "LBCE": "14", "LB_TYPE": "작은도서관", "MNG_INSTIT": null, "FCLT_AREA": 33.000000, "REMARK": null, "BOOK_COUNT": "10,418", "AREA_PLOT": null, "AREA_BUILD": 33.000000 }, "geometry": { "type": "Point", "coordinates": [ 126.93295552695855, 37.470109636819451 ] } },
{ "type": "Feature", "properties": { "OBJECTID_1": 37, "LIB_NAME": "해오름 작은도서관", "ADDR": "금천구 독산1동 289-5", "OPEN_DAY": "1995.3.1", "LBCE": "20", "LB_TYPE": "작은도서관", "MNG_INSTIT": null, "FCLT_AREA": 89.000000, "REMARK": null, "BOOK_COUNT": "6,470", "AREA_PLOT": null, "AREA_BUILD": 89.000000 }, "geometry": { "type": "Point", "coordinates": [ 126.89705242778368, 37.470220765399027 ] } },
{ "type": "Feature", "properties": { "OBJECTID_1": 38, "LIB_NAME": "대학동 녹두 작은도서관", "ADDR": "관악구 대학동 1516", "OPEN_DAY": "1993..", "LBCE": "10", "LB_TYPE": "작은도서관", "MNG_INSTIT": null, "FCLT_AREA": 39.000000, "REMARK": null, "BOOK_COUNT": "3,042", "AREA_PLOT": null, "AREA_BUILD": 39.000000 }, "geometry": { "type": "Point", "coordinates": [ 126.93695238107539, 37.470587570503504 ] } },
{ "type": "Feature", "properties": { "OBJECTID_1": 39, "LIB_NAME": "윤봉길새책도서관", "ADDR": "서초구 양재동 236 매헌기념관 2층", "OPEN_DAY": "2013.10.29", "LBCE": "60", "LB_TYPE": "작은도서관", "MNG_INSTIT": null, "FCLT_AREA": 198.000000, "REMARK": null, "BOOK_COUNT": "2,233", "AREA_PLOT": null, "AREA_BUILD": 198.000000 }, "geometry": { "type": "Point", "coordinates": [ 127.03575871592078, 37.471067505105822 ] } },
{ "type": "Feature", "properties": { "OBJECTID_1": 40, "LIB_NAME": "낙성대공원 도서관", "ADDR": "관악구 낙성대동 낙성대길77", "OPEN_DAY": "2011.6.", "LBCE": "10", "LB_TYPE": "작은도서관", "MNG_INSTIT": null, "FCLT_AREA": 47.000000, "REMARK": null, "BOOK_COUNT": "4,200", "AREA_PLOT": null, "AREA_BUILD": 47.000000 }, "geometry": { "type": "Point", "coordinates": [ 126.95973000006116, 37.471360000349264 ] } },
{ "type": "Feature", "properties": { "OBJECTID_1": 41, "LIB_NAME": "한울타리도서관", "ADDR": "관악구 인헌동 1707 은천아파트", "OPEN_DAY": "2004.1.", "LBCE": "30", "LB_TYPE": "작은도서관", "MNG_INSTIT": null, "FCLT_AREA": 63.000000, "REMARK": null, "BOOK_COUNT": "5,100", "AREA_PLOT": null, "AREA_BUILD": 63.000000 }, "geometry": { "type": "Point", "coordinates": [ 126.96485610244041, 37.471392053334398 ] } },
{ "type": "Feature", "properties": { "OBJECTID_1": 42, "LIB_NAME": "양재1동 작은도서관", "ADDR": "서초구 우면동 68-2", "OPEN_DAY": "2007..", "LBCE": "23", "LB_TYPE": "작은도서관", "MNG_INSTIT": null, "FCLT_AREA": 92.000000, "REMARK": null, "BOOK_COUNT": "15,543", "AREA_PLOT": null, "AREA_BUILD": 92.000000 }, "geometry": { "type": "Point", "coordinates": [ 127.02671071772744, 37.47164293945184 ] } },
{ "type": "Feature", "properties": { "OBJECTID_1": 43, "LIB_NAME": "책쉼터", "ADDR": "관악구 낙성대동 223-9", "OPEN_DAY": "2010..", "LBCE": "20", "LB_TYPE": "작은도서관", "MNG_INSTIT": null, "FCLT_AREA": 35.000000, "REMARK": null, "BOOK_COUNT": "3,020", "AREA_PLOT": null, "AREA_BUILD": 35.000000 }, "geometry": { "type": "Point", "coordinates": [ 126.96051422268, 37.473091789691708 ] } },
{ "type": "Feature", "properties": { "OBJECTID_1": 44, "LIB_NAME": "금천구립가산정보도서관", "ADDR": "금천구 가산로5길 43", "OPEN_DAY": "‘07.4.9", "LBCE": "360", "LB_TYPE": "구립", "MNG_INSTIT": "금천구시설관리공단", "FCLT_AREA": 2215.000000, "REMARK": null, "BOOK_COUNT": "55,383", "AREA_PLOT": "577", "AREA_BUILD": 2215.000000 }, "geometry": { "type": "Point", "coordinates": [ 126.89212802113208, 37.47349244495868 ] } },
{ "type": "Feature", "properties": { "OBJECTID_1": 45, "LIB_NAME": "두리하나 작은도서관", "ADDR": "관악구 서림동 102-76", "OPEN_DAY": "2012.3.", "LBCE": "20", "LB_TYPE": "작은도서관", "MNG_INSTIT": null, "FCLT_AREA": 50.000000, "REMARK": null, "BOOK_COUNT": "2,500", "AREA_PLOT": null, "AREA_BUILD": 50.000000 }, "geometry": { "type": "Point", "coordinates": [ 126.94215002871185, 37.473747369379545 ] } },
{ "type": "Feature", "properties": { "OBJECTID_1": 46, "LIB_NAME": "난곡동 책사랑 작은도서관", "ADDR": "관악구 난곡동 614-19", "OPEN_DAY": "1994..", "LBCE": "16", "LB_TYPE": "작은도서관", "MNG_INSTIT": null, "FCLT_AREA": 102.000000, "REMARK": null, "BOOK_COUNT": "6,643", "AREA_PLOT": null, "AREA_BUILD": 102.000000 }, "geometry": { "type": "Point", "coordinates": [ 126.91853614524472, 37.473740656928541 ] } },
{ "type": "Feature", "properties": { "OBJECTID_1": 47, "LIB_NAME": "남현동 우리 작은도서관", "ADDR": "관악구 남현동 1086-1", "OPEN_DAY": "1993.10.", "LBCE": "60", "LB_TYPE": "작은도서관", "MNG_INSTIT": null, "FCLT_AREA": 179.000000, "REMARK": null, "BOOK_COUNT": "8,190", "AREA_PLOT": null, "AREA_BUILD": 179.000000 }, "geometry": { "type": "Point", "coordinates": [ 126.97790977409868, 37.474581186883661 ] } },
{ "type": "Feature", "properties": { "OBJECTID_1": 48, "LIB_NAME": "인헌동 보물섬 작은도서관", "ADDR": "관악구 인헌동 1637-13", "OPEN_DAY": "1992.8.", "LBCE": "20", "LB_TYPE": "작은도서관", "MNG_INSTIT": null, "FCLT_AREA": 110.000000, "REMARK": null, "BOOK_COUNT": "16,346", "AREA_PLOT": null, "AREA_BUILD": 110.000000 }, "geometry": { "type": "Point", "coordinates": [ 126.96591263977571, 37.474866658143341 ] } },
{ "type": "Feature", "properties": { "OBJECTID_1": 49, "LIB_NAME": "글사랑 작은도서관", "ADDR": "관악구 서림동 1694-7", "OPEN_DAY": "1993.12.", "LBCE": "23", "LB_TYPE": "작은도서관", "MNG_INSTIT": null, "FCLT_AREA": 82.000000, "REMARK": null, "BOOK_COUNT": "5,011", "AREA_PLOT": null, "AREA_BUILD": 82.000000 }, "geometry": { "type": "Point", "coordinates": [ 126.93498156685557, 37.475005056219871 ] } },
{ "type": "Feature", "properties": { "OBJECTID_1": 50, "LIB_NAME": "미래꿈꾸는작은도서관", "ADDR": "금천구 가산동 148-50", "OPEN_DAY": "2013.12.26", "LBCE": "20", "LB_TYPE": "작은도서관", "MNG_INSTIT": null, "FCLT_AREA": 162.000000, "REMARK": null, "BOOK_COUNT": "1,200", "AREA_PLOT": null, "AREA_BUILD": 162.000000 }, "geometry": { "type": "Point", "coordinates": [ 126.89562031830287, 37.47579135402119 ] } },
{ "type": "Feature", "properties": { "OBJECTID_1": 51, "LIB_NAME": "구립봉천청소년독서실", "ADDR": "서울 관악구 낙성대동 산56-3번지", "OPEN_DAY": "1993.2", "LBCE": "0", "LB_TYPE": "작은도서관", "MNG_INSTIT": null, "FCLT_AREA": 0.000000, "REMARK": "휴관", "BOOK_COUNT": null, "AREA_PLOT": null, "AREA_BUILD": 0.000000 }, "geometry": { "type": "Point", "coordinates": [ 126.95693099954087, 37.475956000106109 ] } },
{ "type": "Feature", "properties": { "OBJECTID_1": 52, "LIB_NAME": "미성동 책의향기 작은도서관", "ADDR": "관악구 미성동 863-9", "OPEN_DAY": "1993.8.", "LBCE": "16", "LB_TYPE": "작은도서관", "MNG_INSTIT": null, "FCLT_AREA": 89.000000, "REMARK": null, "BOOK_COUNT": "10,545", "AREA_PLOT": null, "AREA_BUILD": 89.000000 }, "geometry": { "type": "Point", "coordinates": [ 126.91555340807638, 37.476174893121687 ] } },
{ "type": "Feature", "properties": { "OBJECTID_1": 53, "LIB_NAME": "양재2동 작은도서관", "ADDR": "서초구 양재동 264-7", "OPEN_DAY": "1999..", "LBCE": "15", "LB_TYPE": "작은도서관", "MNG_INSTIT": null, "FCLT_AREA": 60.000000, "REMARK": null, "BOOK_COUNT": "8,432", "AREA_PLOT": null, "AREA_BUILD": 60.000000 }, "geometry": { "type": "Point", "coordinates": [ 127.0431368333502, 37.476280088376512 ] } },
{ "type": "Feature", "properties": { "OBJECTID_1": 54, "LIB_NAME": "낙성대동 우듬지 작은도서관", "ADDR": "관악구 낙성대동 1624-247", "OPEN_DAY": "1993.12.", "LBCE": "15", "LB_TYPE": "작은도서관", "MNG_INSTIT": null, "FCLT_AREA": 68.000000, "REMARK": null, "BOOK_COUNT": "9,248", "AREA_PLOT": null, "AREA_BUILD": 68.000000 }, "geometry": { "type": "Point", "coordinates": [ 126.95838712440414, 37.476295051063261 ] } },
{ "type": "Feature", "properties": { "OBJECTID_1": 55, "LIB_NAME": "서림 작은도서관", "ADDR": "서울 관악구 서림동 408-11", "OPEN_DAY": "2012.6", "LBCE": "0", "LB_TYPE": "작은도서관", "MNG_INSTIT": null, "FCLT_AREA": 0.000000, "REMARK": "휴관", "BOOK_COUNT": null, "AREA_PLOT": null, "AREA_BUILD": 0.000000 }, "geometry": { "type": "Point", "coordinates": [ 126.93573600011364, 37.476514999843751 ] } },
{ "type": "Feature", "properties": { "OBJECTID_1": 56, "LIB_NAME": "영락유헬스고", "ADDR": "관악구 청룡16길25", "OPEN_DAY": "‘06. 3", "LBCE": "0", "LB_TYPE": "학교도서관개방", "MNG_INSTIT": "관악", "FCLT_AREA": 300.000000, "REMARK": null, "BOOK_COUNT": "19,000", "AREA_PLOT": null, "AREA_BUILD": 300.000000 }, "geometry": { "type": "Point", "coordinates": [ 126.94541740348292, 37.476542054297362 ] } },
{ "type": "Feature", "properties": { "OBJECTID_1": 57, "LIB_NAME": "고맙습니다 하난곡 작은도서관", "ADDR": "관악구 미성동 597-96", "OPEN_DAY": "2012.6.", "LBCE": "40", "LB_TYPE": "작은도서관", "MNG_INSTIT": null, "FCLT_AREA": 160.000000, "REMARK": null, "BOOK_COUNT": "6,822", "AREA_PLOT": null, "AREA_BUILD": 160.000000 }, "geometry": { "type": "Point", "coordinates": [ 126.91996180649787, 37.476826688343259 ] } },
{ "type": "Feature", "properties": { "OBJECTID_1": 58, "LIB_NAME": "난곡중", "ADDR": "금천구 문성골길190", "OPEN_DAY": "‘04. 7", "LBCE": "0", "LB_TYPE": "학교도서관개방", "MNG_INSTIT": "금천", "FCLT_AREA": 264.000000, "REMARK": null, "BOOK_COUNT": "19,613", "AREA_PLOT": null, "AREA_BUILD": 264.000000 }, "geometry": { "type": "Point", "coordinates": [ 126.91074000007987, 37.477799999690831 ] } },
{ "type": "Feature", "properties": { "OBJECTID_1": 59, "LIB_NAME": "청룡작은도서관", "ADDR": "관악구 청룡동 1577-15", "OPEN_DAY": "2011.4.", "LBCE": "25", "LB_TYPE": "작은도서관", "MNG_INSTIT": null, "FCLT_AREA": 60.000000, "REMARK": null, "BOOK_COUNT": "9,225", "AREA_PLOT": null, "AREA_BUILD": 60.000000 }, "geometry": { "type": "Point", "coordinates": [ 126.94647451391086, 37.478052629806179 ] } },
{ "type": "Feature", "properties": { "OBJECTID_1": 60, "LIB_NAME": "용꿈꾸는 작은도서관", "ADDR": "관악구 청룡동 1570-1", "OPEN_DAY": "2012.11.", "LBCE": "57", "LB_TYPE": "작은도서관", "MNG_INSTIT": null, "FCLT_AREA": 230.000000, "REMARK": null, "BOOK_COUNT": "15,931", "AREA_PLOT": null, "AREA_BUILD": 230.000000 }, "geometry": { "type": "Point", "coordinates": [ 126.95152122320265, 37.478260238346948 ] } },
{ "type": "Feature", "properties": { "OBJECTID_1": 61, "LIB_NAME": "개포4동 작은도서관", "ADDR": "강남구 개포동 1211-4", "OPEN_DAY": "2011.1.10", "LBCE": "8", "LB_TYPE": "작은도서관", "MNG_INSTIT": null, "FCLT_AREA": 33.000000, "REMARK": null, "BOOK_COUNT": "8,459", "AREA_PLOT": null, "AREA_BUILD": 33.000000 }, "geometry": { "type": "Point", "coordinates": [ 127.05162216760573, 37.478857177004322 ] } },
{ "type": "Feature", "properties": { "OBJECTID_1": 62, "LIB_NAME": "청룡동 숯고을 작은도서관", "ADDR": "관악구 청룡동 1539-1", "OPEN_DAY": "1994.2.", "LBCE": "28", "LB_TYPE": "작은도서관", "MNG_INSTIT": null, "FCLT_AREA": 73.000000, "REMARK": null, "BOOK_COUNT": "6,338", "AREA_PLOT": null, "AREA_BUILD": 73.000000 }, "geometry": { "type": "Point", "coordinates": [ 126.94166652297892, 37.479117148929504 ] } },
{ "type": "Feature", "properties": { "OBJECTID_1": 63, "LIB_NAME": "신림푸르지오 도서관", "ADDR": "관악구 미성동 1730", "OPEN_DAY": "2008.1.", "LBCE": "18", "LB_TYPE": "작은도서관", "MNG_INSTIT": null, "FCLT_AREA": 91.000000, "REMARK": null, "BOOK_COUNT": "5,500", "AREA_PLOT": null, "AREA_BUILD": 91.000000 }, "geometry": { "type": "Point", "coordinates": [ 126.91048508711522, 37.479122868475102 ] } },
{ "type": "Feature", "properties": { "OBJECTID_1": 64, "LIB_NAME": "구립신림청소년독서실", "ADDR": "관악구 미성동 산197-31호", "OPEN_DAY": "1988..", "LBCE": "74", "LB_TYPE": "작은도서관", "MNG_INSTIT": null, "FCLT_AREA": 150.000000, "REMARK": null, "BOOK_COUNT": "8,434", "AREA_PLOT": null, "AREA_BUILD": 150.000000 }, "geometry": { "type": "Point", "coordinates": [ 126.91693333850866, 37.479650162968071 ] } },
{ "type": "Feature", "properties": { "OBJECTID_1": 65, "LIB_NAME": "방배2동 작은도서관", "ADDR": "서초구 방배동 462-13", "OPEN_DAY": "1999..", "LBCE": "16", "LB_TYPE": "작은도서관", "MNG_INSTIT": null, "FCLT_AREA": 64.000000, "REMARK": null, "BOOK_COUNT": "12,852", "AREA_PLOT": null, "AREA_BUILD": 64.000000 }, "geometry": { "type": "Point", "coordinates": [ 126.98556008237384, 37.479801017091148 ] } },
{ "type": "Feature", "properties": { "OBJECTID_1": 66, "LIB_NAME": "서원동 어울 작은도서관", "ADDR": "관악구 서원동 1641-65", "OPEN_DAY": "1993.12.", "LBCE": "20", "LB_TYPE": "작은도서관", "MNG_INSTIT": null, "FCLT_AREA": 94.000000, "REMARK": null, "BOOK_COUNT": "12,047", "AREA_PLOT": null, "AREA_BUILD": 94.000000 }, "geometry": { "type": "Point", "coordinates": [ 126.93128715859056, 37.479803543731045 ] } },
{ "type": "Feature", "properties": { "OBJECTID_1": 67, "LIB_NAME": "책이랑놀이랑도서관", "ADDR": "관악구 행운동 1675-12 신창문화복지센터 2층", "OPEN_DAY": "2010.12.", "LBCE": "15", "LB_TYPE": "작은도서관", "MNG_INSTIT": null, "FCLT_AREA": 210.000000, "REMARK": null, "BOOK_COUNT": "7,246", "AREA_PLOT": null, "AREA_BUILD": 210.000000 }, "geometry": { "type": "Point", "coordinates": [ 126.95862023955605, 37.479989271496407 ] } },
{ "type": "Feature", "properties": { "OBJECTID_1": 68, "LIB_NAME": "방배3동 작은도서관", "ADDR": "서초구 방배동 983-14", "OPEN_DAY": "2000..", "LBCE": "8", "LB_TYPE": "작은도서관", "MNG_INSTIT": null, "FCLT_AREA": 50.000000, "REMARK": null, "BOOK_COUNT": "12,073", "AREA_PLOT": null, "AREA_BUILD": 50.000000 }, "geometry": { "type": "Point", "coordinates": [ 126.99904125174923, 37.480306460703538 ] } },
{ "type": "Feature", "properties": { "OBJECTID_1": 69, "LIB_NAME": "글길 작은도서관", "ADDR": "송파구 문정동 75-8 지하", "OPEN_DAY": "2011.12.20", "LBCE": "6", "LB_TYPE": "작은도서관", "MNG_INSTIT": null, "FCLT_AREA": 76.000000, "REMARK": null, "BOOK_COUNT": "4,020", "AREA_PLOT": null, "AREA_BUILD": 76.000000 }, "geometry": { "type": "Point", "coordinates": [ 127.12663157523119, 37.480278250417498 ] } },
{ "type": "Feature", "properties": { "OBJECTID_1": 70, "LIB_NAME": "행운동 마루 작은도서관", "ADDR": "관악구 행운동 1670-7", "OPEN_DAY": "1993.12.", "LBCE": "16", "LB_TYPE": "작은도서관", "MNG_INSTIT": null, "FCLT_AREA": 49.000000, "REMARK": null, "BOOK_COUNT": "10,956", "AREA_PLOT": null, "AREA_BUILD": 49.000000 }, "geometry": { "type": "Point", "coordinates": [ 126.95706416241845, 37.480651858959597 ] } },
{ "type": "Feature", "properties": { "OBJECTID_1": 71, "LIB_NAME": "사당4동마을문고", "ADDR": "동작구 사당4동 300-8", "OPEN_DAY": "2001.1.1", "LBCE": "6", "LB_TYPE": "작은도서관", "MNG_INSTIT": null, "FCLT_AREA": 24.000000, "REMARK": null, "BOOK_COUNT": "2,315", "AREA_PLOT": null, "AREA_BUILD": 24.000000 }, "geometry": { "type": "Point", "coordinates": [ 126.97157648132811, 37.480969792477296 ] } },
{ "type": "Feature", "properties": { "OBJECTID_1": 72, "LIB_NAME": "송파 글마루도서관", "ADDR": "송파구 장지동 846번지", "OPEN_DAY": "‘13.10.25", "LBCE": "103", "LB_TYPE": "구립", "MNG_INSTIT": "송파구 시설관리공단", "FCLT_AREA": 3697.000000, "REMARK": null, "BOOK_COUNT": "33,000", "AREA_PLOT": null, "AREA_BUILD": 3697.000000 }, "geometry": { "type": "Point", "coordinates": [ 127.13074824468835, 37.481019801679821 ] } },
{ "type": "Feature", "properties": { "OBJECTID_1": 73, "LIB_NAME": "에델도서관", "ADDR": "구로구 천왕동 천왕로 47", "OPEN_DAY": "2012.10.30", "LBCE": "24", "LB_TYPE": "작은도서관", "MNG_INSTIT": null, "FCLT_AREA": 42.900000, "REMARK": null, "BOOK_COUNT": "3,000", "AREA_PLOT": null, "AREA_BUILD": 42.900000 }, "geometry": { "type": "Point", "coordinates": [ 126.83794242732462, 37.481251308939378 ] } },
{ "type": "Feature", "properties": { "OBJECTID_1": 74, "LIB_NAME": "신원동 울타리 작은도서관", "ADDR": "관악구 신원동 1601-3", "OPEN_DAY": "1992.3.", "LBCE": "20", "LB_TYPE": "작은도서관", "MNG_INSTIT": null, "FCLT_AREA": 50.000000, "REMARK": null, "BOOK_COUNT": "5,011", "AREA_PLOT": null, "AREA_BUILD": 50.000000 }, "geometry": { "type": "Point", "coordinates": [ 126.92732837671707, 37.481570756642832 ] } },
{ "type": "Feature", "properties": { "OBJECTID_1": 75, "LIB_NAME": "개포1동 작은도서관", "ADDR": "강남구 개포1동 660-7", "OPEN_DAY": "2011.1.10", "LBCE": "10", "LB_TYPE": "작은도서관", "MNG_INSTIT": null, "FCLT_AREA": 36.550000, "REMARK": null, "BOOK_COUNT": "7,663", "AREA_PLOT": null, "AREA_BUILD": 36.550000 }, "geometry": { "type": "Point", "coordinates": [ 127.05748548066127, 37.481989981171573 ] } },
{ "type": "Feature", "properties": { "OBJECTID_1": 76, "LIB_NAME": "방배마을작은도서관", "ADDR": "서초구 방배동 437-23", "OPEN_DAY": "2012.10.18", "LBCE": "30", "LB_TYPE": "작은도서관", "MNG_INSTIT": null, "FCLT_AREA": 132.000000, "REMARK": null, "BOOK_COUNT": "1,972", "AREA_PLOT": null, "AREA_BUILD": 132.000000 }, "geometry": { "type": "Point", "coordinates": [ 126.98373250787256, 37.48228396045085 ] } },
{ "type": "Feature", "properties": { "OBJECTID_1": 77, "LIB_NAME": "예손그루터기", "ADDR": "서초구 방배동 977-18", "OPEN_DAY": "2013.7.8", "LBCE": "12", "LB_TYPE": "작은도서관", "MNG_INSTIT": null, "FCLT_AREA": 60.000000, "REMARK": null, "BOOK_COUNT": "1,600", "AREA_PLOT": null, "AREA_BUILD": 60.000000 }, "geometry": { "type": "Point", "coordinates": [ 126.99190920374124, 37.482414548576365 ] } },
{ "type": "Feature", "properties": { "OBJECTID_1": 78, "LIB_NAME": "조원도서관", "ADDR": "관악구 조원로12길 25", "OPEN_DAY": "‘11.02.09", "LBCE": "150", "LB_TYPE": "구립", "MNG_INSTIT": "관악문화원", "FCLT_AREA": 752.000000, "REMARK": null, "BOOK_COUNT": "28,051", "AREA_PLOT": "801", "AREA_BUILD": 752.000000 }, "geometry": { "type": "Point", "coordinates": [ 126.90779459966308, 37.48256265294512 ] } },
{ "type": "Feature", "properties": { "OBJECTID_1": 79, "LIB_NAME": "천왕이펜하우스3단지 작은도서관", "ADDR": "구로구 천왕동 27", "OPEN_DAY": "2012.10.17", "LBCE": "12", "LB_TYPE": "작은도서관", "MNG_INSTIT": null, "FCLT_AREA": 52.530000, "REMARK": null, "BOOK_COUNT": "2,770", "AREA_PLOT": null, "AREA_BUILD": 52.530000 }, "geometry": { "type": "Point", "coordinates": [ 126.83930496914854, 37.482763259253829 ] } },
{ "type": "Feature", "properties": { "OBJECTID_1": 80, "LIB_NAME": "천왕이펜하우스6단지 작은도서관", "ADDR": "구로구 천왕동 27", "OPEN_DAY": "2013.3.6", "LBCE": "20", "LB_TYPE": "작은도서관", "MNG_INSTIT": null, "FCLT_AREA": 130.890000, "REMARK": null, "BOOK_COUNT": "4,376", "AREA_PLOT": null, "AREA_BUILD": 130.890000 }, "geometry": { "type": "Point", "coordinates": [ 126.83930496914854, 37.482763259253829 ] } },
{ "type": "Feature", "properties": { "OBJECTID_1": 81, "LIB_NAME": "둘레길도서관", "ADDR": "구로구 천왕동 27 4단지 408동", "OPEN_DAY": "2013.4.19", "LBCE": "30", "LB_TYPE": "작은도서관", "MNG_INSTIT": null, "FCLT_AREA": 170.360000, "REMARK": null, "BOOK_COUNT": "3,560", "AREA_PLOT": null, "AREA_BUILD": 170.360000 }, "geometry": { "type": "Point", "coordinates": [ 126.83930496914854, 37.482763259253829 ] } },
{ "type": "Feature", "properties": { "OBJECTID_1": 82, "LIB_NAME": "천왕이펜하우스5단지 작은도서관", "ADDR": "구로구 천왕동 27", "OPEN_DAY": "2013.5.9", "LBCE": "18", "LB_TYPE": "작은도서관", "MNG_INSTIT": null, "FCLT_AREA": 140.370000, "REMARK": null, "BOOK_COUNT": "5,200", "AREA_PLOT": null, "AREA_BUILD": 140.370000 }, "geometry": { "type": "Point", "coordinates": [ 126.83930496914854, 37.482763259253829 ] } },
{ "type": "Feature", "properties": { "OBJECTID_1": 83, "LIB_NAME": "천왕이펜하우스2단지 작은도서관 참새소풍", "ADDR": "구로구 천왕동 27", "OPEN_DAY": "2013.6.20", "LBCE": "50", "LB_TYPE": "작은도서관", "MNG_INSTIT": null, "FCLT_AREA": 108.650000, "REMARK": null, "BOOK_COUNT": "2,500", "AREA_PLOT": null, "AREA_BUILD": 108.650000 }, "geometry": { "type": "Point", "coordinates": [ 126.83930496914854, 37.482763259253829 ] } },
{ "type": "Feature", "properties": { "OBJECTID_1": 84, "LIB_NAME": "천왕이펜하우스1단지 작은도서관 꿈꾸는언덕", "ADDR": "구로구 천왕동 27", "OPEN_DAY": "2013.7.4", "LBCE": "12", "LB_TYPE": "작은도서관", "MNG_INSTIT": null, "FCLT_AREA": 67.140000, "REMARK": null, "BOOK_COUNT": "2,636", "AREA_PLOT": null, "AREA_BUILD": 67.140000 }, "geometry": { "type": "Point", "coordinates": [ 126.83930496914854, 37.482763259253829 ] } },
{ "type": "Feature", "properties": { "OBJECTID_1": 85, "LIB_NAME": "솔로몬 문고", "ADDR": "서울 관악구 신림동 539-28", "OPEN_DAY": "2007.3", "LBCE": "0", "LB_TYPE": "작은도서관", "MNG_INSTIT": null, "FCLT_AREA": 0.000000, "REMARK": "휴관", "BOOK_COUNT": null, "AREA_PLOT": null, "AREA_BUILD": 0.000000 }, "geometry": { "type": "Point", "coordinates": [ 126.91209399995505, 37.482859000094457 ] } },
{ "type": "Feature", "properties": { "OBJECTID_1": 86, "LIB_NAME": "실로암점자도서관[이동도서관]", "ADDR": "관악구 은천동 931-7", "OPEN_DAY": "‘00.10.24", "LBCE": "18", "LB_TYPE": "장애인", "MNG_INSTIT": "사복)대한예수교장로회실로암시각장애인복지회", "FCLT_AREA": 2036.000000, "REMARK": null, "BOOK_COUNT": null, "AREA_PLOT": "651", "AREA_BUILD": 2036.000000 }, "geometry": { "type": "Point", "coordinates": [ 126.94115243666384, 37.483023668577466 ] } },
{ "type": "Feature", "properties": { "OBJECTID_1": 87, "LIB_NAME": "사당1동마을문고", "ADDR": "동작구 사당동 1004-52", "OPEN_DAY": "2001.1.1", "LBCE": "8", "LB_TYPE": "작은도서관", "MNG_INSTIT": null, "FCLT_AREA": 24.000000, "REMARK": null, "BOOK_COUNT": "3,534", "AREA_PLOT": null, "AREA_BUILD": 24.000000 }, "geometry": { "type": "Point", "coordinates": [ 126.97875752564596, 37.483040018101747 ] } },
{ "type": "Feature", "properties": { "OBJECTID_1": 88, "LIB_NAME": "개포도서관", "ADDR": "강남구개포동139", "OPEN_DAY": "‘84.03.28", "LBCE": "393", "LB_TYPE": "시립", "MNG_INSTIT": "교육청 소속", "FCLT_AREA": 2377.000000, "REMARK": null, "BOOK_COUNT": "186,078", "AREA_PLOT": "10,000", "AREA_BUILD": 2377.000000 }, "geometry": { "type": "Point", "coordinates": [ 127.06602949069118, 37.48313880632827 ] } },
{ "type": "Feature", "properties": { "OBJECTID_1": 89, "LIB_NAME": "일원본동 작은도서관", "ADDR": "강남구 일원동 735-3", "OPEN_DAY": "2011.1.10", "LBCE": "2", "LB_TYPE": "작은도서관", "MNG_INSTIT": null, "FCLT_AREA": 23.000000, "REMARK": null, "BOOK_COUNT": "8,898", "AREA_PLOT": null, "AREA_BUILD": 23.000000 }, "geometry": { "type": "Point", "coordinates": [ 127.08647169874509, 37.483316627434 ] } },
{ "type": "Feature", "properties": { "OBJECTID_1": 90, "LIB_NAME": "방배1동 작은도서관", "ADDR": "서초구 방배동 922-18", "OPEN_DAY": "1994..", "LBCE": "20", "LB_TYPE": "작은도서관", "MNG_INSTIT": null, "FCLT_AREA": 49.000000, "REMARK": null, "BOOK_COUNT": "14,253", "AREA_PLOT": null, "AREA_BUILD": 49.000000 }, "geometry": { "type": "Point", "coordinates": [ 126.99453219595297, 37.483402204654681 ] } },
{ "type": "Feature", "properties": { "OBJECTID_1": 91, "LIB_NAME": "도곡2동 작은 도서관", "ADDR": "강남구 도곡동 459", "OPEN_DAY": "1999.1.2", "LBCE": "25", "LB_TYPE": "작은도서관", "MNG_INSTIT": null, "FCLT_AREA": 3417.000000, "REMARK": null, "BOOK_COUNT": "6,216", "AREA_PLOT": null, "AREA_BUILD": 3417.000000 }, "geometry": { "type": "Point", "coordinates": [ 127.04637478102362, 37.483735613271364 ] } },
{ "type": "Feature", "properties": { "OBJECTID_1": 92, "LIB_NAME": "사당 솔밭도서관", "ADDR": "동작구 솔밭로 86", "OPEN_DAY": "‘13. 9.26", "LBCE": "280", "LB_TYPE": "구립", "MNG_INSTIT": "동작구시설관리공단", "FCLT_AREA": 1725.000000, "REMARK": null, "BOOK_COUNT": "18,000", "AREA_PLOT": "824", "AREA_BUILD": 1725.000000 }, "geometry": { "type": "Point", "coordinates": [ 126.96735117054583, 37.484082586740023 ] } },
{ "type": "Feature", "properties": { "OBJECTID_1": 93, "LIB_NAME": "가리봉동 마을문고", "ADDR": "구로구 가리봉동 30-24", "OPEN_DAY": "2002.1.1", "LBCE": "8", "LB_TYPE": "작은도서관", "MNG_INSTIT": null, "FCLT_AREA": 132.000000, "REMARK": null, "BOOK_COUNT": "11,419", "AREA_PLOT": null, "AREA_BUILD": 132.000000 }, "geometry": { "type": "Point", "coordinates": [ 126.88408965065686, 37.484091509761086 ] } },
{ "type": "Feature", "properties": { "OBJECTID_1": 94, "LIB_NAME": "중앙동 새싹 작은도서관", "ADDR": "관악구 중앙동 1512-7", "OPEN_DAY": "1993..", "LBCE": "16", "LB_TYPE": "작은도서관", "MNG_INSTIT": null, "FCLT_AREA": 25.000000, "REMARK": null, "BOOK_COUNT": "6,084", "AREA_PLOT": null, "AREA_BUILD": 25.000000 }, "geometry": { "type": "Point", "coordinates": [ 126.94973095403746, 37.484188128849368 ] } },
{ "type": "Feature", "properties": { "OBJECTID_1": 95, "LIB_NAME": "꿈마을도서관", "ADDR": "관악구 중앙동 44-14번지 2층", "OPEN_DAY": "2007.4.", "LBCE": "30", "LB_TYPE": "작은도서관", "MNG_INSTIT": null, "FCLT_AREA": 150.000000, "REMARK": null, "BOOK_COUNT": "11,520", "AREA_PLOT": null, "AREA_BUILD": 150.000000 }, "geometry": { "type": "Point", "coordinates": [ 126.95399559949149, 37.484507021324106 ] } },
{ "type": "Feature", "properties": { "OBJECTID_1": 96, "LIB_NAME": "주님의 숲", "ADDR": "동작구 사당동 256-1 중앙교회 1층", "OPEN_DAY": "2005.4.4", "LBCE": "68", "LB_TYPE": "작은도서관", "MNG_INSTIT": null, "FCLT_AREA": 179.000000, "REMARK": null, "BOOK_COUNT": "5,400", "AREA_PLOT": null, "AREA_BUILD": 179.000000 }, "geometry": { "type": "Point", "coordinates": [ 126.97347917507336, 37.484513001240003 ] } },
{ "type": "Feature", "properties": { "OBJECTID_1": 97, "LIB_NAME": "죠이문고", "ADDR": "서울 관악구 중앙동 1705번지", "OPEN_DAY": "2003.", "LBCE": "0", "LB_TYPE": "작은도서관", "MNG_INSTIT": null, "FCLT_AREA": 0.000000, "REMARK": "휴관", "BOOK_COUNT": null, "AREA_PLOT": null, "AREA_BUILD": 0.000000 }, "geometry": { "type": "Point", "coordinates": [ 126.94960299955996, 37.48495600018925 ] } },
{ "type": "Feature", "properties": { "OBJECTID_1": 98, "LIB_NAME": "은천동작은도서관", "ADDR": "관악구 봉천로33나길 30", "OPEN_DAY": "‘10.12.16", "LBCE": "88", "LB_TYPE": "구립", "MNG_INSTIT": "관악문화원", "FCLT_AREA": 457.000000, "REMARK": null, "BOOK_COUNT": "17,765", "AREA_PLOT": "1,075", "AREA_BUILD": 457.000000 }, "geometry": { "type": "Point", "coordinates": [ 126.94240795689485, 37.485305640581927 ] } },
{ "type": "Feature", "properties": { "OBJECTID_1": 99, "LIB_NAME": "신사동 해오름 작은도서관", "ADDR": "관악구 신사동 492-4", "OPEN_DAY": "1987.4.", "LBCE": "20", "LB_TYPE": "작은도서관", "MNG_INSTIT": null, "FCLT_AREA": 73.000000, "REMARK": null, "BOOK_COUNT": "6,500", "AREA_PLOT": null, "AREA_BUILD": 73.000000 }, "geometry": { "type": "Point", "coordinates": [ 126.91810737541218, 37.485421041305173 ] } },
{ "type": "Feature", "properties": { "OBJECTID_1": 100, "LIB_NAME": "서초어린이책마을", "ADDR": "서초구 서초동 1535-6 구립서초유스센터 6층", "OPEN_DAY": "2006.6.20", "LBCE": "10", "LB_TYPE": "작은도서관", "MNG_INSTIT": null, "FCLT_AREA": 181.000000, "REMARK": null, "BOOK_COUNT": "20,540", "AREA_PLOT": null, "AREA_BUILD": 181.000000 }, "geometry": { "type": "Point", "coordinates": [ 127.01037057645691, 37.485510235927983 ] } },
{ "type": "Feature", "properties": { "OBJECTID_1": 101, "LIB_NAME": "사당5동마을문고", "ADDR": "동작구 사당동 228-11", "OPEN_DAY": "2001.1.1", "LBCE": "6", "LB_TYPE": "작은도서관", "MNG_INSTIT": null, "FCLT_AREA": 39.600000, "REMARK": null, "BOOK_COUNT": "2,786", "AREA_PLOT": null, "AREA_BUILD": 39.600000 }, "geometry": { "type": "Point", "coordinates": [ 126.96693438389316, 37.485682661747639 ] } },
{ "type": "Feature", "properties": { "OBJECTID_1": 102, "LIB_NAME": "서초3동 작은도서관", "ADDR": "서초구 서초동 1583-10", "OPEN_DAY": "1999.4.2", "LBCE": "15", "LB_TYPE": "작은도서관", "MNG_INSTIT": null, "FCLT_AREA": 70.000000, "REMARK": null, "BOOK_COUNT": "13,360", "AREA_PLOT": null, "AREA_BUILD": 70.000000 }, "geometry": { "type": "Point", "coordinates": [ 127.0115691265441, 37.485715554542288 ] } },
{ "type": "Feature", "properties": { "OBJECTID_1": 103, "LIB_NAME": "개봉3동 마을문고", "ADDR": "구로구 개봉동 360-7", "OPEN_DAY": "1994.11.3", "LBCE": "6", "LB_TYPE": "작은도서관", "MNG_INSTIT": null, "FCLT_AREA": 33.000000, "REMARK": null, "BOOK_COUNT": "6,668", "AREA_PLOT": null, "AREA_BUILD": 33.000000 }, "geometry": { "type": "Point", "coordinates": [ 126.85383864690847, 37.485993323902967 ] } },
{ "type": "Feature", "properties": { "OBJECTID_1": 104, "LIB_NAME": "글빛정보도서관", "ADDR": "관악구 관악로 30길 23", "OPEN_DAY": "‘06.2.27", "LBCE": "139", "LB_TYPE": "구립", "MNG_INSTIT": "관악문화원", "FCLT_AREA": 694.000000, "REMARK": null, "BOOK_COUNT": "49,185", "AREA_PLOT": "315", "AREA_BUILD": 694.000000 }, "geometry": { "type": "Point", "coordinates": [ 126.95967059260795, 37.486242634702108 ] } },
{ "type": "Feature", "properties": { "OBJECTID_1": 105, "LIB_NAME": "개봉어린이도서관", "ADDR": "구로구 개봉로 8-1", "OPEN_DAY": "‘10.01.28", "LBCE": "105", "LB_TYPE": "구립", "MNG_INSTIT": "구로구시설관리공단", "FCLT_AREA": 492.000000, "REMARK": null, "BOOK_COUNT": "21,656", "AREA_PLOT": "442", "AREA_BUILD": 492.000000 }, "geometry": { "type": "Point", "coordinates": [ 126.85684106290951, 37.486350195000156 ] } },
{ "type": "Feature", "properties": { "OBJECTID_1": 106, "LIB_NAME": "사당3동마을문고", "ADDR": "동작구 사당동 169-12", "OPEN_DAY": "2001.1.1", "LBCE": "6", "LB_TYPE": "작은도서관", "MNG_INSTIT": null, "FCLT_AREA": 33.000000, "REMARK": null, "BOOK_COUNT": "2,597", "AREA_PLOT": null, "AREA_BUILD": 33.000000 }, "geometry": { "type": "Point", "coordinates": [ 126.9720627883308, 37.486653470542528 ] } },
{ "type": "Feature", "properties": { "OBJECTID_1": 107, "LIB_NAME": "광진도서실", "ADDR": "구로구 개봉동 294-7", "OPEN_DAY": "2005.11.4", "LBCE": "35", "LB_TYPE": "작은도서관", "MNG_INSTIT": null, "FCLT_AREA": 130.000000, "REMARK": null, "BOOK_COUNT": "9,464", "AREA_PLOT": null, "AREA_BUILD": 130.000000 }, "geometry": { "type": "Point", "coordinates": [ 126.85116443657448, 37.486635106672388 ] } },
{ "type": "Feature", "properties": { "OBJECTID_1": 108, "LIB_NAME": "세광영어도서관", "ADDR": "관악구 성현동 7-399", "OPEN_DAY": "2009.10.", "LBCE": "20", "LB_TYPE": "작은도서관", "MNG_INSTIT": null, "FCLT_AREA": 70.000000, "REMARK": null, "BOOK_COUNT": "2,700", "AREA_PLOT": null, "AREA_BUILD": 70.000000 }, "geometry": { "type": "Point", "coordinates": [ 126.95639584014239, 37.486720807813441 ] } },
{ "type": "Feature", "properties": { "OBJECTID_1": 109, "LIB_NAME": "한울작은도서관", "ADDR": "관악구 은천동 635-662 2층", "OPEN_DAY": "1994.3.", "LBCE": "20", "LB_TYPE": "작은도서관", "MNG_INSTIT": null, "FCLT_AREA": 169.000000, "REMARK": null, "BOOK_COUNT": "13,071", "AREA_PLOT": null, "AREA_BUILD": 169.000000 }, "geometry": { "type": "Point", "coordinates": [ 126.94133484350036, 37.486883678856493 ] } },
{ "type": "Feature", "properties": { "OBJECTID_1": 110, "LIB_NAME": "장지동새마을문고", "ADDR": "송파구 장지동 동주민센터 2층", "OPEN_DAY": "1996..", "LBCE": "20", "LB_TYPE": "작은도서관", "MNG_INSTIT": null, "FCLT_AREA": 44.000000, "REMARK": null, "BOOK_COUNT": "14,104", "AREA_PLOT": null, "AREA_BUILD": 44.000000 }, "geometry": { "type": "Point", "coordinates": [ 127.13235200013892, 37.486952999563023 ] } },
{ "type": "Feature", "properties": { "OBJECTID_1": 111, "LIB_NAME": "꿈마을도서관", "ADDR": "구로구 디지털로 27다길 65", "OPEN_DAY": "‘07.04.05", "LBCE": "124", "LB_TYPE": "구립", "MNG_INSTIT": "구로구시설관리공단", "FCLT_AREA": 476.000000, "REMARK": null, "BOOK_COUNT": "27,352", "AREA_PLOT": "1,535", "AREA_BUILD": 476.000000 }, "geometry": { "type": "Point", "coordinates": [ 126.89015454382637, 37.487142710695302 ] } },
{ "type": "Feature", "properties": { "OBJECTID_1": 112, "LIB_NAME": "봉현 작은 도서관", "ADDR": "관악구 성현동 1703-6", "OPEN_DAY": "2011.4.", "LBCE": "24", "LB_TYPE": "작은도서관", "MNG_INSTIT": null, "FCLT_AREA": 140.000000, "REMARK": null, "BOOK_COUNT": "9,562", "AREA_PLOT": null, "AREA_BUILD": 140.000000 }, "geometry": { "type": "Point", "coordinates": [ 126.95660812326476, 37.487218242413121 ] } },
{ "type": "Feature", "properties": { "OBJECTID_1": 113, "LIB_NAME": "즐거운가 작은도서관", "ADDR": "송파구 문정동 35-9 지층", "OPEN_DAY": "2013.12.18", "LBCE": "6", "LB_TYPE": "작은도서관", "MNG_INSTIT": null, "FCLT_AREA": 208.000000, "REMARK": null, "BOOK_COUNT": "1,200", "AREA_PLOT": null, "AREA_BUILD": 208.000000 }, "geometry": { "type": "Point", "coordinates": [ 127.12638091377427, 37.487187448438156 ] } },
{ "type": "Feature", "properties": { "OBJECTID_1": 114, "LIB_NAME": "예은작은도서관", "ADDR": "서울 관악구 성현동 1703-5", "OPEN_DAY": "2012.2", "LBCE": "0", "LB_TYPE": "작은도서관", "MNG_INSTIT": null, "FCLT_AREA": 0.000000, "REMARK": "휴관", "BOOK_COUNT": null, "AREA_PLOT": null, "AREA_BUILD": 0.000000 }, "geometry": { "type": "Point", "coordinates": [ 126.95539399953729, 37.487313999896614 ] } },
{ "type": "Feature", "properties": { "OBJECTID_1": 115, "LIB_NAME": "성현동작은도서관", "ADDR": "관악구 관악로37길 56", "OPEN_DAY": "‘06.2.28", "LBCE": "60", "LB_TYPE": "구립", "MNG_INSTIT": "관악문화원", "FCLT_AREA": 329.000000, "REMARK": null, "BOOK_COUNT": "32,517", "AREA_PLOT": "15,458", "AREA_BUILD": 329.000000 }, "geometry": { "type": "Point", "coordinates": [ 126.95625528713187, 37.48731542116419 ] } },
{ "type": "Feature", "properties": { "OBJECTID_1": 116, "LIB_NAME": "생각나무 도서관", "ADDR": "서울 관악구 청림동 1717 관악푸르지오아파트", "OPEN_DAY": "2011.6", "LBCE": "0", "LB_TYPE": "작은도서관", "MNG_INSTIT": null, "FCLT_AREA": 0.000000, "REMARK": "휴관", "BOOK_COUNT": null, "AREA_PLOT": null, "AREA_BUILD": 0.000000 }, "geometry": { "type": "Point", "coordinates": [ 126.96071900012295, 37.487361000203677 ] } },
{ "type": "Feature", "properties": { "OBJECTID_1": 117, "LIB_NAME": "하늘도서관", "ADDR": "구로구 구로동로 13길 68", "OPEN_DAY": "‘10.04.02", "LBCE": "159", "LB_TYPE": "구립", "MNG_INSTIT": "구로구시설관리공단", "FCLT_AREA": 690.000000, "REMARK": null, "BOOK_COUNT": "16,857", "AREA_PLOT": "269", "AREA_BUILD": 690.000000 }, "geometry": { "type": "Point", "coordinates": [ 126.88135279273625, 37.487375669544008 ] } },
{ "type": "Feature", "properties": { "OBJECTID_1": 118, "LIB_NAME": "신림동 굴렁쇠 작은도서관", "ADDR": "관악구 신림동 1439-3", "OPEN_DAY": "1993.6.", "LBCE": "12", "LB_TYPE": "작은도서관", "MNG_INSTIT": null, "FCLT_AREA": 40.000000, "REMARK": null, "BOOK_COUNT": "6,098", "AREA_PLOT": null, "AREA_BUILD": 40.000000 }, "geometry": { "type": "Point", "coordinates": [ 126.92711466453976, 37.487416366890471 ] } },
{ "type": "Feature", "properties": { "OBJECTID_1": 119, "LIB_NAME": "개웅중", "ADDR": "구로구 개봉로11길81", "OPEN_DAY": "‘11. 3", "LBCE": "0", "LB_TYPE": "학교도서관개방", "MNG_INSTIT": "구로", "FCLT_AREA": 218.000000, "REMARK": null, "BOOK_COUNT": "29,127", "AREA_PLOT": null, "AREA_BUILD": 218.000000 }, "geometry": { "type": "Point", "coordinates": [ 126.85107221414923, 37.487525185675842 ] } },
{ "type": "Feature", "properties": { "OBJECTID_1": 120, "LIB_NAME": "담쟁이넝쿨도서관", "ADDR": "구로구 개봉3동 개봉3동 351-13", "OPEN_DAY": "2013.2.19", "LBCE": "20", "LB_TYPE": "작은도서관", "MNG_INSTIT": null, "FCLT_AREA": 75.900000, "REMARK": null, "BOOK_COUNT": "1,520", "AREA_PLOT": null, "AREA_BUILD": 75.900000 }, "geometry": { "type": "Point", "coordinates": [ 126.85420198995801, 37.487536297481697 ] } },
{ "type": "Feature", "properties": { "OBJECTID_1": 121, "LIB_NAME": "서울남문고", "ADDR": "구로구 구로동 708-25", "OPEN_DAY": "2004.6.4", "LBCE": "34", "LB_TYPE": "작은도서관", "MNG_INSTIT": null, "FCLT_AREA": 73.000000, "REMARK": null, "BOOK_COUNT": "12,000", "AREA_PLOT": null, "AREA_BUILD": 73.000000 }, "geometry": { "type": "Point", "coordinates": [ 126.8819034243096, 37.488107839315433 ] } },
{ "type": "Feature", "properties": { "OBJECTID_1": 122, "LIB_NAME": "보라매동 다사랑 작은도서관", "ADDR": "관악구 보라매동 661", "OPEN_DAY": "1993.2.", "LBCE": "15", "LB_TYPE": "작은도서관", "MNG_INSTIT": null, "FCLT_AREA": 67.000000, "REMARK": null, "BOOK_COUNT": "5,794", "AREA_PLOT": null, "AREA_BUILD": 67.000000 }, "geometry": { "type": "Point", "coordinates": [ 126.93268159627893, 37.488158496433499 ] } },
{ "type": "Feature", "properties": { "OBJECTID_1": 123, "LIB_NAME": "도곡정보문화도서관", "ADDR": "강남구 도곡로 18길 57(지상3~6)", "OPEN_DAY": "‘13.03.19", "LBCE": "600", "LB_TYPE": "구립", "MNG_INSTIT": "강남문화재단", "FCLT_AREA": 2856.000000, "REMARK": null, "BOOK_COUNT": "25,067", "AREA_PLOT": "2,812", "AREA_BUILD": 2856.000000 }, "geometry": { "type": "Point", "coordinates": [ 127.03887867538577, 37.488311835404978 ] } },
{ "type": "Feature", "properties": { "OBJECTID_1": 124, "LIB_NAME": "동작샘터도서관", "ADDR": "동작구 사당2동 1136-1", "OPEN_DAY": "2009.11.13", "LBCE": "50", "LB_TYPE": "작은도서관", "MNG_INSTIT": null, "FCLT_AREA": 241.000000, "REMARK": null, "BOOK_COUNT": "18,955", "AREA_PLOT": null, "AREA_BUILD": 241.000000 }, "geometry": { "type": "Point", "coordinates": [ 126.97758006242924, 37.488384581728312 ] } },
{ "type": "Feature", "properties": { "OBJECTID_1": 125, "LIB_NAME": "방배4동 작은도서관", "ADDR": "서초구 방배동 854-12", "OPEN_DAY": "2007.1.1", "LBCE": "8", "LB_TYPE": "작은도서관", "MNG_INSTIT": null, "FCLT_AREA": 66.000000, "REMARK": null, "BOOK_COUNT": "18,500", "AREA_PLOT": null, "AREA_BUILD": 66.000000 }, "geometry": { "type": "Point", "coordinates": [ 126.99091804758454, 37.488389963956195 ] } },
{ "type": "Feature", "properties": { "OBJECTID_1": 126, "LIB_NAME": "금강수목원아파트 작은 도서관", "ADDR": "구로구 오류동 343", "OPEN_DAY": "2012.10.30", "LBCE": "12", "LB_TYPE": "작은도서관", "MNG_INSTIT": null, "FCLT_AREA": 46.560000, "REMARK": null, "BOOK_COUNT": "3,935", "AREA_PLOT": null, "AREA_BUILD": 46.560000 }, "geometry": { "type": "Point", "coordinates": [ 126.83238220538378, 37.488278617893172 ] } },
{ "type": "Feature", "properties": { "OBJECTID_1": 127, "LIB_NAME": "은천길문고", "ADDR": "서울 관악구 신사동 458-1", "OPEN_DAY": "2007.8", "LBCE": "0", "LB_TYPE": "작은도서관", "MNG_INSTIT": null, "FCLT_AREA": 0.000000, "REMARK": "휴관", "BOOK_COUNT": null, "AREA_PLOT": null, "AREA_BUILD": 0.000000 }, "geometry": { "type": "Point", "coordinates": [ 126.92102599956522, 37.488402000042413 ] } },
{ "type": "Feature", "properties": { "OBJECTID_1": 128, "LIB_NAME": "꿈꾸는 작은 도서관", "ADDR": "서울 구로구 구로동  166-39", "OPEN_DAY": "2011.10", "LBCE": "0", "LB_TYPE": "작은도서관", "MNG_INSTIT": null, "FCLT_AREA": 59.830000, "REMARK": "휴관", "BOOK_COUNT": null, "AREA_PLOT": null, "AREA_BUILD": 59.830000 }, "geometry": { "type": "Point", "coordinates": [ 126.89345600054253, 37.488470999979896 ] } },
{ "type": "Feature", "properties": { "OBJECTID_1": 129, "LIB_NAME": "산성문고", "ADDR": "서울 관악구 봉천동 635-301", "OPEN_DAY": "2007.2", "LBCE": "0", "LB_TYPE": "작은도서관", "MNG_INSTIT": null, "FCLT_AREA": 0.000000, "REMARK": "휴관", "BOOK_COUNT": null, "AREA_PLOT": null, "AREA_BUILD": 0.000000 }, "geometry": { "type": "Point", "coordinates": [ 126.94155800022806, 37.488569000352683 ] } },
{ "type": "Feature", "properties": { "OBJECTID_1": 130, "LIB_NAME": "사당2동마을문고", "ADDR": "동작구 사당2동 105-12", "OPEN_DAY": "2001.1.1", "LBCE": "15", "LB_TYPE": "작은도서관", "MNG_INSTIT": null, "FCLT_AREA": 43.000000, "REMARK": null, "BOOK_COUNT": "4,326", "AREA_PLOT": null, "AREA_BUILD": 43.000000 }, "geometry": { "type": "Point", "coordinates": [ 126.97923986612037, 37.488727268029507 ] } },
{ "type": "Feature", "properties": { "OBJECTID_1": 131, "LIB_NAME": "휴피아작은도서관", "ADDR": "송파구 문정동 11--8", "OPEN_DAY": "2006.5.24", "LBCE": "4", "LB_TYPE": "작은도서관", "MNG_INSTIT": null, "FCLT_AREA": 38.000000, "REMARK": null, "BOOK_COUNT": "2,030", "AREA_PLOT": null, "AREA_BUILD": 38.000000 }, "geometry": { "type": "Point", "coordinates": [ 127.12761839737097, 37.488807931502926 ] } },
{ "type": "Feature", "properties": { "OBJECTID_1": 132, "LIB_NAME": "오류2동 마을문고", "ADDR": "구로구 오류2동 172-76", "OPEN_DAY": "1993.4.29", "LBCE": "6", "LB_TYPE": "작은도서관", "MNG_INSTIT": null, "FCLT_AREA": 33.000000, "REMARK": null, "BOOK_COUNT": "10,871", "AREA_PLOT": null, "AREA_BUILD": 33.000000 }, "geometry": { "type": "Point", "coordinates": [ 126.83950466843071, 37.488775051902103 ] } },
{ "type": "Feature", "properties": { "OBJECTID_1": 133, "LIB_NAME": "신대방1동마을문고", "ADDR": "동작구 신대방동 604-8", "OPEN_DAY": "2001.1.1", "LBCE": "20", "LB_TYPE": "작은도서관", "MNG_INSTIT": null, "FCLT_AREA": 73.000000, "REMARK": null, "BOOK_COUNT": "6,981", "AREA_PLOT": null, "AREA_BUILD": 73.000000 }, "geometry": { "type": "Point", "coordinates": [ 126.91005275138767, 37.488932718266042 ] } },
{ "type": "Feature", "properties": { "OBJECTID_1": 134, "LIB_NAME": "수서동 작은도서관", "ADDR": "강남구 수서동 718-2", "OPEN_DAY": "2011.1.10", "LBCE": "12", "LB_TYPE": "작은도서관", "MNG_INSTIT": null, "FCLT_AREA": 33.000000, "REMARK": null, "BOOK_COUNT": "5,361", "AREA_PLOT": null, "AREA_BUILD": 33.000000 }, "geometry": { "type": "Point", "coordinates": [ 127.10494528525092, 37.488967200214447 ] } },
{ "type": "Feature", "properties": { "OBJECTID_1": 135, "LIB_NAME": "성현동 파랑새 작은도서관", "ADDR": "관악구 성현동 1712-9", "OPEN_DAY": "1993.10.", "LBCE": "50", "LB_TYPE": "작은도서관", "MNG_INSTIT": null, "FCLT_AREA": 109.000000, "REMARK": null, "BOOK_COUNT": "7,800", "AREA_PLOT": null, "AREA_BUILD": 109.000000 }, "geometry": { "type": "Point", "coordinates": [ 126.94828005287256, 37.489496242009842 ] } },
{ "type": "Feature", "properties": { "OBJECTID_1": 136, "LIB_NAME": "해성작은도서관", "ADDR": "관악구 성현동 1703 행복상가 310호", "OPEN_DAY": "2008.1.", "LBCE": "30", "LB_TYPE": "작은도서관", "MNG_INSTIT": null, "FCLT_AREA": 71.000000, "REMARK": null, "BOOK_COUNT": "2,500", "AREA_PLOT": null, "AREA_BUILD": 71.000000 }, "geometry": { "type": "Point", "coordinates": [ 126.9555529007356, 37.489592906781866 ] } },
{ "type": "Feature", "properties": { "OBJECTID_1": 137, "LIB_NAME": "개봉도서관", "ADDR": "구로구 개봉로16길 30-11", "OPEN_DAY": "‘10.04.30", "LBCE": "77", "LB_TYPE": "구립", "MNG_INSTIT": "구로구시설관리공단", "FCLT_AREA": 521.000000, "REMARK": null, "BOOK_COUNT": "11,010", "AREA_PLOT": "297", "AREA_BUILD": 521.000000 }, "geometry": { "type": "Point", "coordinates": [ 126.85797479110835, 37.489523108799013 ] } },
{ "type": "Feature", "properties": { "OBJECTID_1": 138, "LIB_NAME": "행복한 작은도서관", "ADDR": "구로구 개봉동 264-27", "OPEN_DAY": "2002.11.26", "LBCE": "24", "LB_TYPE": "작은도서관", "MNG_INSTIT": null, "FCLT_AREA": 83.800000, "REMARK": null, "BOOK_COUNT": "4,100", "AREA_PLOT": null, "AREA_BUILD": 83.800000 }, "geometry": { "type": "Point", "coordinates": [ 126.85701139824607, 37.489525550769386 ] } },
{ "type": "Feature", "properties": { "OBJECTID_1": 139, "LIB_NAME": "다서원", "ADDR": "관악구 청림동 1717-1 관악푸르지오 제2단지", "OPEN_DAY": "2006..", "LBCE": "12", "LB_TYPE": "작은도서관", "MNG_INSTIT": null, "FCLT_AREA": 36.000000, "REMARK": null, "BOOK_COUNT": "2,280", "AREA_PLOT": null, "AREA_BUILD": 36.000000 }, "geometry": { "type": "Point", "coordinates": [ 126.96031556009019, 37.489619830763139 ] } },
{ "type": "Feature", "properties": { "OBJECTID_1": 140, "LIB_NAME": "포도나무문고", "ADDR": "구로구 오류동 166-10", "OPEN_DAY": "2007.2.22", "LBCE": "36", "LB_TYPE": "작은도서관", "MNG_INSTIT": null, "FCLT_AREA": 123.910000, "REMARK": null, "BOOK_COUNT": "3,312", "AREA_PLOT": null, "AREA_BUILD": 123.910000 }, "geometry": { "type": "Point", "coordinates": [ 126.83969265817113, 37.489697938142221 ] } },
{ "type": "Feature", "properties": { "OBJECTID_1": 141, "LIB_NAME": "예꿈작은도서관", "ADDR": "서울 관악구 청림동 1-76번지", "OPEN_DAY": "2008.1", "LBCE": "0", "LB_TYPE": "작은도서관", "MNG_INSTIT": null, "FCLT_AREA": 0.000000, "REMARK": "휴관", "BOOK_COUNT": null, "AREA_PLOT": null, "AREA_BUILD": 0.000000 }, "geometry": { "type": "Point", "coordinates": [ 126.95870500014972, 37.489893000413907 ] } },
{ "type": "Feature", "properties": { "OBJECTID_1": 142, "LIB_NAME": "구로꿈나무도서관", "ADDR": "구로구 구로동 구로동로 26길 54", "OPEN_DAY": "‘04.05.03", "LBCE": "87", "LB_TYPE": "구립", "MNG_INSTIT": "구로구시설관리공단", "FCLT_AREA": 638.000000, "REMARK": null, "BOOK_COUNT": "62,008", "AREA_PLOT": "2,430", "AREA_BUILD": 638.000000 }, "geometry": { "type": "Point", "coordinates": [ 126.88655929809978, 37.489878375915076 ] } },
{ "type": "Feature", "properties": { "OBJECTID_1": 143, "LIB_NAME": "문정1동새마을문고", "ADDR": "송파구 문정동 동주민센터 2층", "OPEN_DAY": "1988..", "LBCE": "20", "LB_TYPE": "작은도서관", "MNG_INSTIT": null, "FCLT_AREA": 62.000000, "REMARK": null, "BOOK_COUNT": "9,388", "AREA_PLOT": null, "AREA_BUILD": 62.000000 }, "geometry": { "type": "Point", "coordinates": [ 127.1108988004505, 37.48988439331378 ] } },
{ "type": "Feature", "properties": { "OBJECTID_1": 144, "LIB_NAME": "문정2동새마을문고", "ADDR": "송파구 문정동 동주민센터 1층", "OPEN_DAY": "1996..", "LBCE": "20", "LB_TYPE": "작은도서관", "MNG_INSTIT": null, "FCLT_AREA": 33.000000, "REMARK": null, "BOOK_COUNT": "7,494", "AREA_PLOT": null, "AREA_BUILD": 33.000000 }, "geometry": { "type": "Point", "coordinates": [ 127.1108988004505, 37.48988439331378 ] } },
{ "type": "Feature", "properties": { "OBJECTID_1": 145, "LIB_NAME": "블루밍문고", "ADDR": "관악구 은천동 1718 벽산블루밍아파트관리사무소", "OPEN_DAY": "2005.11.", "LBCE": "50", "LB_TYPE": "작은도서관", "MNG_INSTIT": null, "FCLT_AREA": 250.000000, "REMARK": null, "BOOK_COUNT": "12,000", "AREA_PLOT": null, "AREA_BUILD": 250.000000 }, "geometry": { "type": "Point", "coordinates": [ 126.94451210283715, 37.48994503622454 ] } },
{ "type": "Feature", "properties": { "OBJECTID_1": 146, "LIB_NAME": "주민도서실", "ADDR": "서울 송파구 거여동 292 관리사무소 옆", "OPEN_DAY": "2011.9", "LBCE": "0", "LB_TYPE": "작은도서관", "MNG_INSTIT": null, "FCLT_AREA": 42.000000, "REMARK": "휴관", "BOOK_COUNT": null, "AREA_PLOT": null, "AREA_BUILD": 42.000000 }, "geometry": { "type": "Point", "coordinates": [ 127.14735700043909, 37.489944999626566 ] } },
{ "type": "Feature", "properties": { "OBJECTID_1": 147, "LIB_NAME": "서초1동 작은도서관", "ADDR": "서초구 서초동 1649-5", "OPEN_DAY": "2001..", "LBCE": "15", "LB_TYPE": "작은도서관", "MNG_INSTIT": null, "FCLT_AREA": 69.000000, "REMARK": null, "BOOK_COUNT": "12,000", "AREA_PLOT": null, "AREA_BUILD": 69.000000 }, "geometry": { "type": "Point", "coordinates": [ 127.01950313273176, 37.490136658306021 ] } },
{ "type": "Feature", "properties": { "OBJECTID_1": 148, "LIB_NAME": "문정작은도서관", "ADDR": "송파구 가락본동 107-15", "OPEN_DAY": "2013.2.19", "LBCE": "8", "LB_TYPE": "작은도서관", "MNG_INSTIT": null, "FCLT_AREA": 40.000000, "REMARK": null, "BOOK_COUNT": "1,200", "AREA_PLOT": null, "AREA_BUILD": 40.000000 }, "geometry": { "type": "Point", "coordinates": [ 127.1236453828483, 37.490397928906596 ] } },
{ "type": "Feature", "properties": { "OBJECTID_1": 149, "LIB_NAME": "새광명도서관", "ADDR": "구로구 개봉동 259-13", "OPEN_DAY": "2010.7.22", "LBCE": "20", "LB_TYPE": "작은도서관", "MNG_INSTIT": null, "FCLT_AREA": 110.370000, "REMARK": null, "BOOK_COUNT": "5,000", "AREA_PLOT": null, "AREA_BUILD": 110.370000 }, "geometry": { "type": "Point", "coordinates": [ 126.85804478468718, 37.490777394535833 ] } },
{ "type": "Feature", "properties": { "OBJECTID_1": 150, "LIB_NAME": "개봉2동 마을문고", "ADDR": "구로구 개봉동 261-6", "OPEN_DAY": "2002.1.12", "LBCE": "18", "LB_TYPE": "작은도서관", "MNG_INSTIT": null, "FCLT_AREA": 40.000000, "REMARK": null, "BOOK_COUNT": "9,226", "AREA_PLOT": null, "AREA_BUILD": 40.000000 }, "geometry": { "type": "Point", "coordinates": [ 126.8565837545322, 37.490826086369871 ] } },
{ "type": "Feature", "properties": { "OBJECTID_1": 151, "LIB_NAME": "구로4동 마을문고", "ADDR": "구로구 구로동 317-87", "OPEN_DAY": "1994.10.7", "LBCE": "13", "LB_TYPE": "작은도서관", "MNG_INSTIT": null, "FCLT_AREA": 42.000000, "REMARK": null, "BOOK_COUNT": "10,032", "AREA_PLOT": null, "AREA_BUILD": 42.000000 }, "geometry": { "type": "Point", "coordinates": [ 126.88914842234259, 37.491596351121657 ] } },
{ "type": "Feature", "properties": { "OBJECTID_1": 152, "LIB_NAME": "청림동 푸른숲 작은도서관", "ADDR": "관악구 청림동 1000번지", "OPEN_DAY": "1993.7.", "LBCE": "6", "LB_TYPE": "작은도서관", "MNG_INSTIT": null, "FCLT_AREA": 44.000000, "REMARK": null, "BOOK_COUNT": "7,504", "AREA_PLOT": null, "AREA_BUILD": 44.000000 }, "geometry": { "type": "Point", "coordinates": [ 126.95836029796436, 37.492041065881487 ] } },
{ "type": "Feature", "properties": { "OBJECTID_1": 153, "LIB_NAME": "봉천5동작은문고", "ADDR": "관악구 성현동 1718 - 5", "OPEN_DAY": "2007.9.", "LBCE": "60", "LB_TYPE": "작은도서관", "MNG_INSTIT": null, "FCLT_AREA": 99.000000, "REMARK": null, "BOOK_COUNT": "3,000", "AREA_PLOT": null, "AREA_BUILD": 99.000000 }, "geometry": { "type": "Point", "coordinates": [ 126.94532470181665, 37.492053772382135 ] } },
{ "type": "Feature", "properties": { "OBJECTID_1": 154, "LIB_NAME": "서초2동 작은도서관", "ADDR": "서초구 서초동 1332-6", "OPEN_DAY": "2004..", "LBCE": "6", "LB_TYPE": "작은도서관", "MNG_INSTIT": null, "FCLT_AREA": 40.000000, "REMARK": null, "BOOK_COUNT": "9,166", "AREA_PLOT": null, "AREA_BUILD": 40.000000 }, "geometry": { "type": "Point", "coordinates": [ 127.02492231731298, 37.492071003452182 ] } },
{ "type": "Feature", "properties": { "OBJECTID_1": 155, "LIB_NAME": "구립서초어린이도서관", "ADDR": "서초구 효령로77길 37(서초동)", "OPEN_DAY": "‘05.02.23", "LBCE": "35", "LB_TYPE": "구립", "MNG_INSTIT": "영화교회", "FCLT_AREA": 401.000000, "REMARK": null, "BOOK_COUNT": "58,493", "AREA_PLOT": "153", "AREA_BUILD": 401.000000 }, "geometry": { "type": "Point", "coordinates": [ 127.02819261515104, 37.492315342292677 ] } },
{ "type": "Feature", "properties": { "OBJECTID_1": 156, "LIB_NAME": "마중물 도서관", "ADDR": "구로구 온수동 23-26 양곡빌딩2층", "OPEN_DAY": "2012.6.14", "LBCE": "10", "LB_TYPE": "작은도서관", "MNG_INSTIT": null, "FCLT_AREA": 35.000000, "REMARK": null, "BOOK_COUNT": "2,400", "AREA_PLOT": null, "AREA_BUILD": 35.000000 }, "geometry": { "type": "Point", "coordinates": [ 126.8218346187064, 37.492191571000447 ] } },
{ "type": "Feature", "properties": { "OBJECTID_1": 157, "LIB_NAME": "영희초", "ADDR": "강남구 일원로21", "OPEN_DAY": "`13. 1", "LBCE": "0", "LB_TYPE": "학교도서관개방", "MNG_INSTIT": "강남", "FCLT_AREA": 350.000000, "REMARK": null, "BOOK_COUNT": "27,903", "AREA_PLOT": null, "AREA_BUILD": 350.000000 }, "geometry": { "type": "Point", "coordinates": [ 127.08113120597315, 37.492301660590712 ] } },
{ "type": "Feature", "properties": { "OBJECTID_1": 158, "LIB_NAME": "소나무언덕3호작은도서관", "ADDR": "송파구 성내천로 319 4층", "OPEN_DAY": "‘09.12.21", "LBCE": "84", "LB_TYPE": "구립", "MNG_INSTIT": "청소년교통문화재단", "FCLT_AREA": 357.000000, "REMARK": null, "BOOK_COUNT": "15,579", "AREA_PLOT": "602", "AREA_BUILD": 357.000000 }, "geometry": { "type": "Point", "coordinates": [ 127.15664472645489, 37.49233379043617 ] } },
{ "type": "Feature", "properties": { "OBJECTID_1": 159, "LIB_NAME": "서울가든빌라 도서관", "ADDR": "구로구 오류동 97-4", "OPEN_DAY": "2011.10.20", "LBCE": "14", "LB_TYPE": "작은도서관", "MNG_INSTIT": null, "FCLT_AREA": 52.800000, "REMARK": null, "BOOK_COUNT": "2,113", "AREA_PLOT": null, "AREA_BUILD": 52.800000 }, "geometry": { "type": "Point", "coordinates": [ 126.83102072929685, 37.492334812109803 ] } },
{ "type": "Feature", "properties": { "OBJECTID_1": 160, "LIB_NAME": "하상시각장애인도서관", "ADDR": "강남구 개포동 12-5", "OPEN_DAY": "02.5.3", "LBCE": "0", "LB_TYPE": "장애인", "MNG_INSTIT": "사복)하상복지회", "FCLT_AREA": 500.000000, "REMARK": null, "BOOK_COUNT": null, "AREA_PLOT": "922", "AREA_BUILD": 500.000000 }, "geometry": { "type": "Point", "coordinates": [ 127.07503876282078, 37.492500304900837 ] } },
{ "type": "Feature", "properties": { "OBJECTID_1": 161, "LIB_NAME": "오류문고", "ADDR": "구로구 오류동 340", "OPEN_DAY": "2010.5.26", "LBCE": "20", "LB_TYPE": "작은도서관", "MNG_INSTIT": null, "FCLT_AREA": 46.200000, "REMARK": null, "BOOK_COUNT": "4,000", "AREA_PLOT": null, "AREA_BUILD": 46.200000 }, "geometry": { "type": "Point", "coordinates": [ 126.83934730854807, 37.492559065857293 ] } },
{ "type": "Feature", "properties": { "OBJECTID_1": 162, "LIB_NAME": "대림2동 새마을문고", "ADDR": "영등포구 대림2동 705번지 (독서실 3층)", "OPEN_DAY": "2006.1.17", "LBCE": "20", "LB_TYPE": "작은도서관", "MNG_INSTIT": null, "FCLT_AREA": 40.000000, "REMARK": null, "BOOK_COUNT": "9,550", "AREA_PLOT": null, "AREA_BUILD": 40.000000 }, "geometry": { "type": "Point", "coordinates": [ 126.89817048982263, 37.492678472256856 ] } },
{ "type": "Feature", "properties": { "OBJECTID_1": 163, "LIB_NAME": "살림문고", "ADDR": "서울 관악구 성현동 1718-8", "OPEN_DAY": "2007.12", "LBCE": "0", "LB_TYPE": "작은도서관", "MNG_INSTIT": null, "FCLT_AREA": 0.000000, "REMARK": "휴관", "BOOK_COUNT": null, "AREA_PLOT": null, "AREA_BUILD": 0.000000 }, "geometry": { "type": "Point", "coordinates": [ 126.94575900029352, 37.492959000035079 ] } },
{ "type": "Feature", "properties": { "OBJECTID_1": 164, "LIB_NAME": "숲속꿈나무어린이도서관", "ADDR": "서울 구로구 오류동 145-50", "OPEN_DAY": "2009.11", "LBCE": "0", "LB_TYPE": "작은도서관", "MNG_INSTIT": null, "FCLT_AREA": 36.220000, "REMARK": "휴관", "BOOK_COUNT": null, "AREA_PLOT": null, "AREA_BUILD": 36.220000 }, "geometry": { "type": "Point", "coordinates": [ 126.84698200031778, 37.492883000051279 ] } },
{ "type": "Feature", "properties": { "OBJECTID_1": 165, "LIB_NAME": "두껍아두껍아 도서관", "ADDR": "영등포구 대림동 878-18", "OPEN_DAY": "2006.6.28", "LBCE": "80", "LB_TYPE": "작은도서관", "MNG_INSTIT": null, "FCLT_AREA": 141.000000, "REMARK": null, "BOOK_COUNT": "3,300", "AREA_PLOT": null, "AREA_BUILD": 141.000000 }, "geometry": { "type": "Point", "coordinates": [ 126.90418134249835, 37.492993446675449 ] } },
{ "type": "Feature", "properties": { "OBJECTID_1": 166, "LIB_NAME": "대치1 작은도서관", "ADDR": "강남구 대치1동 646-2", "OPEN_DAY": "2008.2.25", "LBCE": "24", "LB_TYPE": "작은도서관", "MNG_INSTIT": null, "FCLT_AREA": 96.370000, "REMARK": null, "BOOK_COUNT": "19,459", "AREA_PLOT": null, "AREA_BUILD": 96.370000 }, "geometry": { "type": "Point", "coordinates": [ 127.05677040068952, 37.493249321675222 ] } },
{ "type": "Feature", "properties": { "OBJECTID_1": 167, "LIB_NAME": "프리미엄회원제 작은도서관 통통통", "ADDR": "구로구 궁동 204-3", "OPEN_DAY": "2013.11.28", "LBCE": "24", "LB_TYPE": "작은도서관", "MNG_INSTIT": null, "FCLT_AREA": 36.160000, "REMARK": null, "BOOK_COUNT": "2,300", "AREA_PLOT": null, "AREA_BUILD": 36.160000 }, "geometry": { "type": "Point", "coordinates": [ 126.83301285018946, 37.493490932631509 ] } },
{ "type": "Feature", "properties": { "OBJECTID_1": 168, "LIB_NAME": "송파구거마도서정보센터", "ADDR": "송파구 거마로 2길 19", "OPEN_DAY": "‘05.4.27", "LBCE": "253", "LB_TYPE": "구립", "MNG_INSTIT": "송파구시설관리공단", "FCLT_AREA": 886.000000, "REMARK": null, "BOOK_COUNT": "29,733", "AREA_PLOT": "1,305", "AREA_BUILD": 886.000000 }, "geometry": { "type": "Point", "coordinates": [ 127.14682739648711, 37.493539331988281 ] } },
{ "type": "Feature", "properties": { "OBJECTID_1": 169, "LIB_NAME": "예인작은도서관", "ADDR": "송파구 가락동 186-15 2층", "OPEN_DAY": "2013.11.20", "LBCE": "19", "LB_TYPE": "작은도서관", "MNG_INSTIT": null, "FCLT_AREA": 50.000000, "REMARK": null, "BOOK_COUNT": "2,000", "AREA_PLOT": null, "AREA_BUILD": 50.000000 }, "geometry": { "type": "Point", "coordinates": [ 127.13429403996653, 37.493766881507405 ] } },
{ "type": "Feature", "properties": { "OBJECTID_1": 170, "LIB_NAME": "수궁동 마을문고", "ADDR": "구로구 궁동 213-42", "OPEN_DAY": "2005.3.1", "LBCE": "28", "LB_TYPE": "작은도서관", "MNG_INSTIT": null, "FCLT_AREA": 67.500000, "REMARK": null, "BOOK_COUNT": "16,501", "AREA_PLOT": null, "AREA_BUILD": 67.500000 }, "geometry": { "type": "Point", "coordinates": [ 126.83149227063484, 37.493841967928233 ] } },
{ "type": "Feature", "properties": { "OBJECTID_1": 171, "LIB_NAME": "인성시각장애인도서관", "ADDR": "송파구 마천동 211-90", "OPEN_DAY": "‘00.9.14", "LBCE": "30", "LB_TYPE": "장애인", "MNG_INSTIT": "사복)다산복지회", "FCLT_AREA": 214.000000, "REMARK": null, "BOOK_COUNT": null, "AREA_PLOT": "492", "AREA_BUILD": 214.000000 }, "geometry": { "type": "Point", "coordinates": [ 127.15509668457898, 37.493972060321873 ] } },
{ "type": "Feature", "properties": { "OBJECTID_1": 172, "LIB_NAME": "방배본동 작은도서관", "ADDR": "서초구 방배동 774-9", "OPEN_DAY": "1994..", "LBCE": "10", "LB_TYPE": "작은도서관", "MNG_INSTIT": null, "FCLT_AREA": 96.000000, "REMARK": null, "BOOK_COUNT": "21,000", "AREA_PLOT": null, "AREA_BUILD": 96.000000 }, "geometry": { "type": "Point", "coordinates": [ 126.98882761819327, 37.494141816373777 ] } },
{ "type": "Feature", "properties": { "OBJECTID_1": 173, "LIB_NAME": "구일고", "ADDR": "구로구 구로5길5", "OPEN_DAY": "‘07. 3", "LBCE": "0", "LB_TYPE": "학교도서관개방", "MNG_INSTIT": "구로", "FCLT_AREA": 264.000000, "REMARK": null, "BOOK_COUNT": "19,264", "AREA_PLOT": null, "AREA_BUILD": 264.000000 }, "geometry": { "type": "Point", "coordinates": [ 126.87384999966412, 37.494110000329968 ] } },
{ "type": "Feature", "properties": { "OBJECTID_1": 174, "LIB_NAME": "대림동 작은 마을 문고", "ADDR": "영등포구 대림동 894-78", "OPEN_DAY": "2009.6.17", "LBCE": "30", "LB_TYPE": "작은도서관", "MNG_INSTIT": null, "FCLT_AREA": 70.000000, "REMARK": null, "BOOK_COUNT": "2,300", "AREA_PLOT": null, "AREA_BUILD": 70.000000 }, "geometry": { "type": "Point", "coordinates": [ 126.90609252121517, 37.494685269958154 ] } },
{ "type": "Feature", "properties": { "OBJECTID_1": 175, "LIB_NAME": "서남작은 도서관", "ADDR": "구로구 궁동 211-23", "OPEN_DAY": "2012.4.2", "LBCE": "10", "LB_TYPE": "작은도서관", "MNG_INSTIT": null, "FCLT_AREA": 47.940000, "REMARK": null, "BOOK_COUNT": "3,000", "AREA_PLOT": null, "AREA_BUILD": 47.940000 }, "geometry": { "type": "Point", "coordinates": [ 126.83141790674632, 37.494728451719389 ] } },
{ "type": "Feature", "properties": { "OBJECTID_1": 176, "LIB_NAME": "우신고", "ADDR": "구로구 부일로917", "OPEN_DAY": "‘06. 3", "LBCE": "0", "LB_TYPE": "학교도서관개방", "MNG_INSTIT": "구로", "FCLT_AREA": 660.000000, "REMARK": null, "BOOK_COUNT": "32,000", "AREA_PLOT": null, "AREA_BUILD": 660.000000 }, "geometry": { "type": "Point", "coordinates": [ 126.82635145351287, 37.494901314466993 ] } },
{ "type": "Feature", "properties": { "OBJECTID_1": 177, "LIB_NAME": "구로1동 마을문고", "ADDR": "구로구 구로동 685-23", "OPEN_DAY": "2002.12.1", "LBCE": "24", "LB_TYPE": "작은도서관", "MNG_INSTIT": null, "FCLT_AREA": 49.500000, "REMARK": null, "BOOK_COUNT": "11,068", "AREA_PLOT": null, "AREA_BUILD": 49.500000 }, "geometry": { "type": "Point", "coordinates": [ 126.87834608872485, 37.495142895608765 ] } },
{ "type": "Feature", "properties": { "OBJECTID_1": 178, "LIB_NAME": "예꿈틀어린이도서관", "ADDR": "송파구 가락2동 191-6 3층", "OPEN_DAY": "2009.9.7", "LBCE": "10", "LB_TYPE": "작은도서관", "MNG_INSTIT": null, "FCLT_AREA": 34.000000, "REMARK": null, "BOOK_COUNT": "4,989", "AREA_PLOT": null, "AREA_BUILD": 34.000000 }, "geometry": { "type": "Point", "coordinates": [ 127.13434200905445, 37.495294933677748 ] } },
{ "type": "Feature", "properties": { "OBJECTID_1": 179, "LIB_NAME": "역삼도서관", "ADDR": "강남구역삼로7길16 (역삼1동829-20역삼1문화센터5층)", "OPEN_DAY": "‘07.10.09", "LBCE": "93", "LB_TYPE": "구립", "MNG_INSTIT": "(사)작은도서관만드는사람들", "FCLT_AREA": 396.000000, "REMARK": null, "BOOK_COUNT": "24,479", "AREA_PLOT": null, "AREA_BUILD": 396.000000 }, "geometry": { "type": "Point", "coordinates": [ 127.03328248367086, 37.495373837893887 ] } },
{ "type": "Feature", "properties": { "OBJECTID_1": 180, "LIB_NAME": "보라매e편한세상작은도서관", "ADDR": "동작구 신대방동 720번지 보라매e편한세상 101동", "OPEN_DAY": "2011.1.3", "LBCE": "20", "LB_TYPE": "작은도서관", "MNG_INSTIT": null, "FCLT_AREA": 80.770000, "REMARK": null, "BOOK_COUNT": "2,839", "AREA_PLOT": null, "AREA_BUILD": 80.770000 }, "geometry": { "type": "Point", "coordinates": [ 126.92855886030688, 37.495429005499325 ] } },
{ "type": "Feature", "properties": { "OBJECTID_1": 181, "LIB_NAME": "대림1동새마을문고", "ADDR": "영등포구 대림1동 899-2번지", "OPEN_DAY": "2006.1.4", "LBCE": "100", "LB_TYPE": "작은도서관", "MNG_INSTIT": null, "FCLT_AREA": 132.000000, "REMARK": null, "BOOK_COUNT": "16,919", "AREA_PLOT": null, "AREA_BUILD": 132.000000 }, "geometry": { "type": "Point", "coordinates": [ 126.90597847288937, 37.495456440864061 ] } },
{ "type": "Feature", "properties": { "OBJECTID_1": 182, "LIB_NAME": "가락본동새마을문고", "ADDR": "송파구 가락동 동주민센터 1층", "OPEN_DAY": "1992..", "LBCE": "20", "LB_TYPE": "작은도서관", "MNG_INSTIT": null, "FCLT_AREA": 50.000000, "REMARK": null, "BOOK_COUNT": "9,215", "AREA_PLOT": null, "AREA_BUILD": 50.000000 }, "geometry": { "type": "Point", "coordinates": [ 127.12174000006797, 37.495549999607 ] } },
{ "type": "Feature", "properties": { "OBJECTID_1": 183, "LIB_NAME": "가락2동새마을문고", "ADDR": "송파구 가락동 동주민센터 1층", "OPEN_DAY": "1990..", "LBCE": "20", "LB_TYPE": "작은도서관", "MNG_INSTIT": null, "FCLT_AREA": 56.000000, "REMARK": null, "BOOK_COUNT": "15,530", "AREA_PLOT": null, "AREA_BUILD": 56.000000 }, "geometry": { "type": "Point", "coordinates": [ 127.12174000006797, 37.495549999607 ] } },
{ "type": "Feature", "properties": { "OBJECTID_1": 184, "LIB_NAME": "쌍용 북카페", "ADDR": "송파구 가락동 140", "OPEN_DAY": "2013.9.11", "LBCE": "12", "LB_TYPE": "작은도서관", "MNG_INSTIT": null, "FCLT_AREA": 35.000000, "REMARK": null, "BOOK_COUNT": "1,435", "AREA_PLOT": null, "AREA_BUILD": 35.000000 }, "geometry": { "type": "Point", "coordinates": [ 127.12811837538592, 37.495543316709032 ] } },
{ "type": "Feature", "properties": { "OBJECTID_1": 185, "LIB_NAME": "역삼2 작은도서관", "ADDR": "강남구 역삼2동 761-19", "OPEN_DAY": "2010.4.1", "LBCE": "18", "LB_TYPE": "작은도서관", "MNG_INSTIT": null, "FCLT_AREA": 121.920000, "REMARK": null, "BOOK_COUNT": "7,223", "AREA_PLOT": null, "AREA_BUILD": 121.920000 }, "geometry": { "type": "Point", "coordinates": [ 127.04639133244763, 37.495873981260196 ] } },
{ "type": "Feature", "properties": { "OBJECTID_1": 186, "LIB_NAME": "한마음 작은도서관", "ADDR": "송파구 마천동 607", "OPEN_DAY": "2013.12.12", "LBCE": "32", "LB_TYPE": "작은도서관", "MNG_INSTIT": null, "FCLT_AREA": 72.000000, "REMARK": null, "BOOK_COUNT": "3,500", "AREA_PLOT": null, "AREA_BUILD": 72.000000 }, "geometry": { "type": "Point", "coordinates": [ 127.15889550106272, 37.495783440142496 ] } },
{ "type": "Feature", "properties": { "OBJECTID_1": 187, "LIB_NAME": "아름다움 꿈 작은도서관", "ADDR": "송파구 마천동 128-9 3층", "OPEN_DAY": "2013.8.27", "LBCE": "60", "LB_TYPE": "작은도서관", "MNG_INSTIT": null, "FCLT_AREA": 60.000000, "REMARK": null, "BOOK_COUNT": "3,395", "AREA_PLOT": null, "AREA_BUILD": 60.000000 }, "geometry": { "type": "Point", "coordinates": [ 127.15004344692328, 37.495831054831186 ] } },
{ "type": "Feature", "properties": { "OBJECTID_1": 188, "LIB_NAME": "마천1동새마을문고", "ADDR": "송파구 마천동 동주민센터 1층", "OPEN_DAY": "1995..", "LBCE": "20", "LB_TYPE": "작은도서관", "MNG_INSTIT": null, "FCLT_AREA": 50.000000, "REMARK": null, "BOOK_COUNT": "7,530", "AREA_PLOT": null, "AREA_BUILD": 50.000000 }, "geometry": { "type": "Point", "coordinates": [ 127.1499400002476, 37.495969999652353 ] } },
{ "type": "Feature", "properties": { "OBJECTID_1": 189, "LIB_NAME": "마천2동새마을문고", "ADDR": "송파구 마천동 동주민센터2층", "OPEN_DAY": "1996..", "LBCE": "20", "LB_TYPE": "작은도서관", "MNG_INSTIT": null, "FCLT_AREA": 40.000000, "REMARK": null, "BOOK_COUNT": "10,113", "AREA_PLOT": null, "AREA_BUILD": 40.000000 }, "geometry": { "type": "Point", "coordinates": [ 127.1499400002476, 37.495969999652353 ] } },
{ "type": "Feature", "properties": { "OBJECTID_1": 190, "LIB_NAME": "배꼽빠지는 도서관", "ADDR": "구로구 구로1동 685-147", "OPEN_DAY": "2012.10.10", "LBCE": "45", "LB_TYPE": "작은도서관", "MNG_INSTIT": null, "FCLT_AREA": 154.550000, "REMARK": null, "BOOK_COUNT": "3,600", "AREA_PLOT": null, "AREA_BUILD": 154.550000 }, "geometry": { "type": "Point", "coordinates": [ 126.87521446094746, 37.496051447586566 ] } },
{ "type": "Feature", "properties": { "OBJECTID_1": 191, "LIB_NAME": "쁘레네 작은도서관 별찌", "ADDR": "송파구 가락동 175-8 2층", "OPEN_DAY": "2012.2.24", "LBCE": "28", "LB_TYPE": "작은도서관", "MNG_INSTIT": null, "FCLT_AREA": 99.000000, "REMARK": null, "BOOK_COUNT": "2,000", "AREA_PLOT": null, "AREA_BUILD": 99.000000 }, "geometry": { "type": "Point", "coordinates": [ 127.13601263190355, 37.496136363817961 ] } },
{ "type": "Feature", "properties": { "OBJECTID_1": 192, "LIB_NAME": "아름다운 작은도서관", "ADDR": "송파구 가락동 148-3 2층", "OPEN_DAY": "2011.10.25", "LBCE": "8", "LB_TYPE": "작은도서관", "MNG_INSTIT": null, "FCLT_AREA": 70.000000, "REMARK": null, "BOOK_COUNT": "1,592", "AREA_PLOT": null, "AREA_BUILD": 70.000000 }, "geometry": { "type": "Point", "coordinates": [ 127.12591216430657, 37.496237661462445 ] } },
{ "type": "Feature", "properties": { "OBJECTID_1": 193, "LIB_NAME": "스토리빈 작은도서관", "ADDR": "송파구 가락동 175-9", "OPEN_DAY": "2013.12.12", "LBCE": "30", "LB_TYPE": "작은도서관", "MNG_INSTIT": null, "FCLT_AREA": 40.000000, "REMARK": null, "BOOK_COUNT": "7,000", "AREA_PLOT": null, "AREA_BUILD": 40.000000 }, "geometry": { "type": "Point", "coordinates": [ 127.13613493869315, 37.496233531593788 ] } },
{ "type": "Feature", "properties": { "OBJECTID_1": 194, "LIB_NAME": "한우리 독서문화원", "ADDR": "구로구 개봉동 170-23", "OPEN_DAY": "2004.4.2", "LBCE": "20", "LB_TYPE": "작은도서관", "MNG_INSTIT": null, "FCLT_AREA": 123.000000, "REMARK": null, "BOOK_COUNT": "5,900", "AREA_PLOT": null, "AREA_BUILD": 123.000000 }, "geometry": { "type": "Point", "coordinates": [ 126.85862243746625, 37.496263414162264 ] } },
{ "type": "Feature", "properties": { "OBJECTID_1": 195, "LIB_NAME": "꿈나무어린이도서관", "ADDR": "서울  송파구  가락동  143 이레빌딩 1층 엠바우교회", "OPEN_DAY": "2008.1", "LBCE": "0", "LB_TYPE": "작은도서관", "MNG_INSTIT": null, "FCLT_AREA": 0.000000, "REMARK": "휴관", "BOOK_COUNT": null, "AREA_PLOT": null, "AREA_BUILD": 0.000000 }, "geometry": { "type": "Point", "coordinates": [ 127.12544700044954, 37.496291000336008 ] } },
{ "type": "Feature", "properties": { "OBJECTID_1": 196, "LIB_NAME": "파크사이드도서관", "ADDR": "구로구 구로동 103-4", "OPEN_DAY": "2011.8.29", "LBCE": "30", "LB_TYPE": "작은도서관", "MNG_INSTIT": null, "FCLT_AREA": 141.290000, "REMARK": null, "BOOK_COUNT": "1,100", "AREA_PLOT": null, "AREA_BUILD": 141.290000 }, "geometry": { "type": "Point", "coordinates": [ 126.88980180098434, 37.496354277280645 ] } },
{ "type": "Feature", "properties": { "OBJECTID_1": 197, "LIB_NAME": "강남역삼푸른솔도서관", "ADDR": "강남구테헤란로8길36(삼동827-61)", "OPEN_DAY": "‘09.06.12", "LBCE": "199", "LB_TYPE": "구립", "MNG_INSTIT": "(사)작은도서관만드는사람들", "FCLT_AREA": 568.000000, "REMARK": null, "BOOK_COUNT": "23,991", "AREA_PLOT": "622", "AREA_BUILD": 568.000000 }, "geometry": { "type": "Point", "coordinates": [ 127.03203000839518, 37.49649864048385 ] } },
{ "type": "Feature", "properties": { "OBJECTID_1": 198, "LIB_NAME": "이사랑나눔도서관", "ADDR": "송파구 마천2동 128-18", "OPEN_DAY": "2009.12.22", "LBCE": "30", "LB_TYPE": "작은도서관", "MNG_INSTIT": null, "FCLT_AREA": 100.000000, "REMARK": null, "BOOK_COUNT": "5,650", "AREA_PLOT": null, "AREA_BUILD": 100.000000 }, "geometry": { "type": "Point", "coordinates": [ 127.1488464915094, 37.496701138684379 ] } },
{ "type": "Feature", "properties": { "OBJECTID_1": 199, "LIB_NAME": "아름도서관", "ADDR": "구로구 온수동 155 온수힐스테이트", "OPEN_DAY": "2012.7.27", "LBCE": "20", "LB_TYPE": "작은도서관", "MNG_INSTIT": null, "FCLT_AREA": 72.300000, "REMARK": null, "BOOK_COUNT": "2,100", "AREA_PLOT": null, "AREA_BUILD": 72.300000 }, "geometry": { "type": "Point", "coordinates": [ 126.82102771869492, 37.496731420725141 ] } },
{ "type": "Feature", "properties": { "OBJECTID_1": 200, "LIB_NAME": "구로초구로구립주민전용도서관", "ADDR": "구로구 구로동 443번지", "OPEN_DAY": "‘09.05.07", "LBCE": "62", "LB_TYPE": "구립", "MNG_INSTIT": "구로구시설관리공단", "FCLT_AREA": 467.000000, "REMARK": null, "BOOK_COUNT": "17,683", "AREA_PLOT": "467", "AREA_BUILD": 467.000000 }, "geometry": { "type": "Point", "coordinates": [ 126.88595612069257, 37.496894835154833 ] } },
{ "type": "Feature", "properties": { "OBJECTID_1": 201, "LIB_NAME": "거여1동새마을문고", "ADDR": "송파구 거여동 동주민센터 3층", "OPEN_DAY": "1991..", "LBCE": "20", "LB_TYPE": "작은도서관", "MNG_INSTIT": null, "FCLT_AREA": 68.000000, "REMARK": null, "BOOK_COUNT": "7,441", "AREA_PLOT": null, "AREA_BUILD": 68.000000 }, "geometry": { "type": "Point", "coordinates": [ 127.14328999956216, 37.496899999790315 ] } },
{ "type": "Feature", "properties": { "OBJECTID_1": 202, "LIB_NAME": "신상도문고", "ADDR": "동작구 상도4동 214-80", "OPEN_DAY": "2007.3.9", "LBCE": "50", "LB_TYPE": "작은도서관", "MNG_INSTIT": null, "FCLT_AREA": 53.000000, "REMARK": null, "BOOK_COUNT": "3,504", "AREA_PLOT": null, "AREA_BUILD": 53.000000 }, "geometry": { "type": "Point", "coordinates": [ 126.94518085575784, 37.497020055498574 ] } },
{ "type": "Feature", "properties": { "OBJECTID_1": 203, "LIB_NAME": "대진초", "ADDR": "강남구 개포로109길74", "OPEN_DAY": "'12. 1", "LBCE": "0", "LB_TYPE": "학교도서관개방", "MNG_INSTIT": "강남", "FCLT_AREA": 186.000000, "REMARK": null, "BOOK_COUNT": "25,380", "AREA_PLOT": null, "AREA_BUILD": 186.000000 }, "geometry": { "type": "Point", "coordinates": [ 127.07807847927398, 37.497010576678356 ] } },
{ "type": "Feature", "properties": { "OBJECTID_1": 204, "LIB_NAME": "오류1동 마을문고", "ADDR": "구로구 오류1동 31-138", "OPEN_DAY": "1994.7.15", "LBCE": "16", "LB_TYPE": "작은도서관", "MNG_INSTIT": null, "FCLT_AREA": 66.000000, "REMARK": null, "BOOK_COUNT": "13,787", "AREA_PLOT": null, "AREA_BUILD": 66.000000 }, "geometry": { "type": "Point", "coordinates": [ 126.8451367346556, 37.497028578723068 ] } },
{ "type": "Feature", "properties": { "OBJECTID_1": 205, "LIB_NAME": "오류도서관", "ADDR": "구로구오류1동13-15", "OPEN_DAY": "‘78.7.2", "LBCE": "475", "LB_TYPE": "사립", "MNG_INSTIT": "오류1동새마을금고", "FCLT_AREA": 1595.000000, "REMARK": null, "BOOK_COUNT": null, "AREA_PLOT": "1,000", "AREA_BUILD": 1595.000000 }, "geometry": { "type": "Point", "coordinates": [ 126.84203782631565, 37.497208280899599 ] } },
{ "type": "Feature", "properties": { "OBJECTID_1": 206, "LIB_NAME": "국립중앙도서관", "ADDR": "서초구반포동산60-1", "OPEN_DAY": "‘45.10.15", "LBCE": "1082", "LB_TYPE": "국립", "MNG_INSTIT": null, "FCLT_AREA": 59511.000000, "REMARK": null, "BOOK_COUNT": "6,126,941(‘13.1.31)", "AREA_PLOT": "142,233", "AREA_BUILD": 59511.000000 }, "geometry": { "type": "Point", "coordinates": [ 127.00338804727544, 37.497393128511398 ] } },
{ "type": "Feature", "properties": { "OBJECTID_1": 207, "LIB_NAME": "이니텍도서관", "ADDR": "구로구 구로동 476-134", "OPEN_DAY": "2011.7.22", "LBCE": "46", "LB_TYPE": "작은도서관", "MNG_INSTIT": null, "FCLT_AREA": 231.000000, "REMARK": null, "BOOK_COUNT": "5,500", "AREA_PLOT": null, "AREA_BUILD": 231.000000 }, "geometry": { "type": "Point", "coordinates": [ 126.88014737061796, 37.497339587833494 ] } },
{ "type": "Feature", "properties": { "OBJECTID_1": 208, "LIB_NAME": "반포4동 작은도서관", "ADDR": "서초구 반포동 74-7", "OPEN_DAY": "2000..", "LBCE": "35", "LB_TYPE": "작은도서관", "MNG_INSTIT": null, "FCLT_AREA": 75.000000, "REMARK": null, "BOOK_COUNT": "10,828", "AREA_PLOT": null, "AREA_BUILD": 75.000000 }, "geometry": { "type": "Point", "coordinates": [ 127.00031211684994, 37.49747606928215 ] } },
{ "type": "Feature", "properties": { "OBJECTID_1": 209, "LIB_NAME": "수도지역도서관", "ADDR": "동작구 상도동 223-19", "OPEN_DAY": "2008.9.1", "LBCE": "50", "LB_TYPE": "작은도서관", "MNG_INSTIT": null, "FCLT_AREA": 164.000000, "REMARK": null, "BOOK_COUNT": "3,100", "AREA_PLOT": null, "AREA_BUILD": 164.000000 }, "geometry": { "type": "Point", "coordinates": [ 126.94274687429238, 37.497530672623526 ] } },
{ "type": "Feature", "properties": { "OBJECTID_1": 210, "LIB_NAME": "성대골어린이도서관", "ADDR": "동작구 상도동 263-8 2층", "OPEN_DAY": "2010.10.21", "LBCE": "20", "LB_TYPE": "작은도서관", "MNG_INSTIT": null, "FCLT_AREA": 86.000000, "REMARK": null, "BOOK_COUNT": "7,000", "AREA_PLOT": null, "AREA_BUILD": 86.000000 }, "geometry": { "type": "Point", "coordinates": [ 126.93534651890397, 37.497548478480276 ] } },
{ "type": "Feature", "properties": { "OBJECTID_1": 211, "LIB_NAME": "몽당연필도서관", "ADDR": "구로구 궁동 178-14", "OPEN_DAY": "2007.10.10", "LBCE": "36", "LB_TYPE": "작은도서관", "MNG_INSTIT": null, "FCLT_AREA": 49.600000, "REMARK": null, "BOOK_COUNT": "5,400", "AREA_PLOT": null, "AREA_BUILD": 49.600000 }, "geometry": { "type": "Point", "coordinates": [ 126.83123084556054, 37.497452825876714 ] } },
{ "type": "Feature", "properties": { "OBJECTID_1": 212, "LIB_NAME": "구립약수작은도서관", "ADDR": "동작구 상도4동 211-77", "OPEN_DAY": "2008.1.22", "LBCE": "47", "LB_TYPE": "작은도서관", "MNG_INSTIT": null, "FCLT_AREA": 122.490000, "REMARK": null, "BOOK_COUNT": "13,289", "AREA_PLOT": null, "AREA_BUILD": 122.490000 }, "geometry": { "type": "Point", "coordinates": [ 126.94743742767422, 37.497886047232406 ] } },
{ "type": "Feature", "properties": { "OBJECTID_1": 213, "LIB_NAME": "로즈빌도서관", "ADDR": "구로구 고척동 336", "OPEN_DAY": "2011.9.6", "LBCE": "14", "LB_TYPE": "작은도서관", "MNG_INSTIT": null, "FCLT_AREA": 37.600000, "REMARK": null, "BOOK_COUNT": "2,050", "AREA_PLOT": null, "AREA_BUILD": 37.600000 }, "geometry": { "type": "Point", "coordinates": [ 126.85804041337795, 37.497866506618585 ] } },
{ "type": "Feature", "properties": { "OBJECTID_1": 214, "LIB_NAME": "대림3동 새마을문고", "ADDR": "서울시 영등포구 대림3동 740-4호", "OPEN_DAY": "2006.1.13", "LBCE": "10", "LB_TYPE": "작은도서관", "MNG_INSTIT": null, "FCLT_AREA": 49.000000, "REMARK": null, "BOOK_COUNT": "10,366", "AREA_PLOT": null, "AREA_BUILD": 49.000000 }, "geometry": { "type": "Point", "coordinates": [ 126.89803617893907, 37.49831505270911 ] } },
{ "type": "Feature", "properties": { "OBJECTID_1": 215, "LIB_NAME": "언니네작은도서관", "ADDR": "영등포구 대림동 742-7", "OPEN_DAY": "2014.0.0", "LBCE": "100", "LB_TYPE": "작은도서관", "MNG_INSTIT": null, "FCLT_AREA": 135.000000, "REMARK": null, "BOOK_COUNT": "5,700", "AREA_PLOT": null, "AREA_BUILD": 135.000000 }, "geometry": { "type": "Point", "coordinates": [ 126.89662476006419, 37.498382302514649 ] } },
{ "type": "Feature", "properties": { "OBJECTID_1": 216, "LIB_NAME": "구로도서관", "ADDR": "구로구구로5동106-1", "OPEN_DAY": "‘84.10.08", "LBCE": "483", "LB_TYPE": "시립", "MNG_INSTIT": "교육청 소속", "FCLT_AREA": 2121.000000, "REMARK": null, "BOOK_COUNT": "121,673", "AREA_PLOT": "1,738", "AREA_BUILD": 2121.000000 }, "geometry": { "type": "Point", "coordinates": [ 126.89171207928459, 37.498504042286491 ] } },
{ "type": "Feature", "properties": { "OBJECTID_1": 217, "LIB_NAME": "풍성한 어린이 영어작은 도서관", "ADDR": "구로구 구로동 642-30 지층", "OPEN_DAY": "2012.6.14", "LBCE": "15", "LB_TYPE": "작은도서관", "MNG_INSTIT": null, "FCLT_AREA": 148.890000, "REMARK": null, "BOOK_COUNT": "1,800", "AREA_PLOT": null, "AREA_BUILD": 148.890000 }, "geometry": { "type": "Point", "coordinates": [ 126.87671666756906, 37.498525385234409 ] } },
{ "type": "Feature", "properties": { "OBJECTID_1": 218, "LIB_NAME": "서일중학교", "ADDR": "서초구 서초동 1313", "OPEN_DAY": "‘07.7.12", "LBCE": "80", "LB_TYPE": "학교복합 및 리모델링", "MNG_INSTIT": "서일중학교", "FCLT_AREA": 280.000000, "REMARK": null, "BOOK_COUNT": null, "AREA_PLOT": "-", "AREA_BUILD": 280.000000 }, "geometry": { "type": "Point", "coordinates": [ 127.02270345986739, 37.498637988377574 ] } },
{ "type": "Feature", "properties": { "OBJECTID_1": 219, "LIB_NAME": "한믿음도서관", "ADDR": "영등포구 신길6동 4577번지", "OPEN_DAY": "2008.9.30", "LBCE": "30", "LB_TYPE": "작은도서관", "MNG_INSTIT": null, "FCLT_AREA": 33.000000, "REMARK": null, "BOOK_COUNT": "3,000", "AREA_PLOT": null, "AREA_BUILD": 33.000000 }, "geometry": { "type": "Point", "coordinates": [ 126.90891026753272, 37.498612259779968 ] } },
{ "type": "Feature", "properties": { "OBJECTID_1": 220, "LIB_NAME": "송파파크데일1단지도서관", "ADDR": "송파구 마천동 582", "OPEN_DAY": "2012.12.10", "LBCE": "30", "LB_TYPE": "작은도서관", "MNG_INSTIT": null, "FCLT_AREA": 88.000000, "REMARK": null, "BOOK_COUNT": "4,159", "AREA_PLOT": null, "AREA_BUILD": 88.000000 }, "geometry": { "type": "Point", "coordinates": [ 127.15810120363514, 37.498786656614264 ] } },
{ "type": "Feature", "properties": { "OBJECTID_1": 221, "LIB_NAME": "중앙하이츠도서관", "ADDR": "구로구 구로동 1269", "OPEN_DAY": "2013.11.15", "LBCE": "72", "LB_TYPE": "작은도서관", "MNG_INSTIT": null, "FCLT_AREA": 143.550000, "REMARK": null, "BOOK_COUNT": "1,588", "AREA_PLOT": null, "AREA_BUILD": 143.550000 }, "geometry": { "type": "Point", "coordinates": [ 126.88055207838519, 37.498846479604126 ] } },
{ "type": "Feature", "properties": { "OBJECTID_1": 222, "LIB_NAME": "신대방2동마을문고", "ADDR": "동작구 신대방동 355-9 2층", "OPEN_DAY": "2001.1.1", "LBCE": "8", "LB_TYPE": "작은도서관", "MNG_INSTIT": null, "FCLT_AREA": 33.000000, "REMARK": null, "BOOK_COUNT": "3,156", "AREA_PLOT": null, "AREA_BUILD": 33.000000 }, "geometry": { "type": "Point", "coordinates": [ 126.92585951778568, 37.498919642947968 ] } },
{ "type": "Feature", "properties": { "OBJECTID_1": 223, "LIB_NAME": "상도3동마을문고", "ADDR": "동작구 상도3동 315-37", "OPEN_DAY": "2001.1.1", "LBCE": "3", "LB_TYPE": "작은도서관", "MNG_INSTIT": null, "FCLT_AREA": 20.000000, "REMARK": null, "BOOK_COUNT": "3,055", "AREA_PLOT": null, "AREA_BUILD": 20.000000 }, "geometry": { "type": "Point", "coordinates": [ 126.9314051674084, 37.499121214557128 ] } },
{ "type": "Feature", "properties": { "OBJECTID_1": 224, "LIB_NAME": "신길6동 새마을문고", "ADDR": "영등포구 신길6동 3741-37", "OPEN_DAY": "2006.1.4", "LBCE": "30", "LB_TYPE": "작은도서관", "MNG_INSTIT": null, "FCLT_AREA": 96.000000, "REMARK": null, "BOOK_COUNT": "11,806", "AREA_PLOT": null, "AREA_BUILD": 96.000000 }, "geometry": { "type": "Point", "coordinates": [ 126.91244243176916, 37.499202386443564 ] } },
{ "type": "Feature", "properties": { "OBJECTID_1": 225, "LIB_NAME": "좋은물결도서관", "ADDR": "송파구 마천동 162-4 4층", "OPEN_DAY": "2013.6.11", "LBCE": "30", "LB_TYPE": "작은도서관", "MNG_INSTIT": null, "FCLT_AREA": 40.000000, "REMARK": null, "BOOK_COUNT": "3,100", "AREA_PLOT": null, "AREA_BUILD": 40.000000 }, "geometry": { "type": "Point", "coordinates": [ 127.15292714099725, 37.499193514288336 ] } },
{ "type": "Feature", "properties": { "OBJECTID_1": 226, "LIB_NAME": "구로2동 마을문고", "ADDR": "구로구 구로동 494-20", "OPEN_DAY": "1994.10.20", "LBCE": "6", "LB_TYPE": "작은도서관", "MNG_INSTIT": null, "FCLT_AREA": 57.900000, "REMARK": null, "BOOK_COUNT": "11,172", "AREA_PLOT": null, "AREA_BUILD": 57.900000 }, "geometry": { "type": "Point", "coordinates": [ 126.88298503271358, 37.499292209409589 ] } },
{ "type": "Feature", "properties": { "OBJECTID_1": 227, "LIB_NAME": "두날개도서관", "ADDR": "영등포구 대림3동 779-13", "OPEN_DAY": "2013.0.11", "LBCE": "30", "LB_TYPE": "작은도서관", "MNG_INSTIT": null, "FCLT_AREA": 42.000000, "REMARK": null, "BOOK_COUNT": "1,000", "AREA_PLOT": null, "AREA_BUILD": 42.000000 }, "geometry": { "type": "Point", "coordinates": [ 126.8962930756984, 37.499445198772904 ] } },
{ "type": "Feature", "properties": { "OBJECTID_1": 228, "LIB_NAME": "꿈이있는 도서관", "ADDR": "영등포구 신길6동 4003번지", "OPEN_DAY": "2010.6.28", "LBCE": "40", "LB_TYPE": "작은도서관", "MNG_INSTIT": null, "FCLT_AREA": 82.000000, "REMARK": null, "BOOK_COUNT": "8,565", "AREA_PLOT": null, "AREA_BUILD": 82.000000 }, "geometry": { "type": "Point", "coordinates": [ 126.91526481009811, 37.499474746393105 ] } },
{ "type": "Feature", "properties": { "OBJECTID_1": 229, "LIB_NAME": "대치도서관", "ADDR": "강남구삼성로212(대치동316번지    은마아파트복지상가2층", "OPEN_DAY": "‘99.02.26", "LBCE": "134", "LB_TYPE": "구립", "MNG_INSTIT": "(사)작은도서관만드는사람들", "FCLT_AREA": 580.000000, "REMARK": null, "BOOK_COUNT": "40,818", "AREA_PLOT": "1,764", "AREA_BUILD": 580.000000 }, "geometry": { "type": "Point", "coordinates": [ 127.06591733758928, 37.499616490237521 ] } },
{ "type": "Feature", "properties": { "OBJECTID_1": 230, "LIB_NAME": "다리작은도서관", "ADDR": "송파구 오금동 152-3 2층", "OPEN_DAY": "2012.1.5", "LBCE": "20", "LB_TYPE": "작은도서관", "MNG_INSTIT": null, "FCLT_AREA": 70.000000, "REMARK": null, "BOOK_COUNT": "1,969", "AREA_PLOT": null, "AREA_BUILD": 70.000000 }, "geometry": { "type": "Point", "coordinates": [ 127.13752083733414, 37.4996557483163 ] } },
{ "type": "Feature", "properties": { "OBJECTID_1": 231, "LIB_NAME": "즐거운도서관", "ADDR": "강남구 도곡로 북49길 23  (대치4동928-22)", "OPEN_DAY": "‘04.09.01", "LBCE": "98", "LB_TYPE": "구립", "MNG_INSTIT": "(사)작은도서관만드는사람들", "FCLT_AREA": 325.000000, "REMARK": null, "BOOK_COUNT": "35,819", "AREA_PLOT": "1,154", "AREA_BUILD": 325.000000 }, "geometry": { "type": "Point", "coordinates": [ 127.05776999975404, 37.499780000145179 ] } },
{ "type": "Feature", "properties": { "OBJECTID_1": 232, "LIB_NAME": "구로5동 마을문고", "ADDR": "구로구 구로동 109-4", "OPEN_DAY": "1992.2.29", "LBCE": "8", "LB_TYPE": "작은도서관", "MNG_INSTIT": null, "FCLT_AREA": 34.000000, "REMARK": null, "BOOK_COUNT": "9,376", "AREA_PLOT": null, "AREA_BUILD": 34.000000 }, "geometry": { "type": "Point", "coordinates": [ 126.88932134867844, 37.500080388781967 ] } },
{ "type": "Feature", "properties": { "OBJECTID_1": 233, "LIB_NAME": "다우리 작은도서관", "ADDR": "송파구 오금동 143-6", "OPEN_DAY": "2013.12.19", "LBCE": "8", "LB_TYPE": "작은도서관", "MNG_INSTIT": null, "FCLT_AREA": 45.000000, "REMARK": null, "BOOK_COUNT": "1,877", "AREA_PLOT": null, "AREA_BUILD": 45.000000 }, "geometry": { "type": "Point", "coordinates": [ 127.13951655469921, 37.500100306906994 ] } },
{ "type": "Feature", "properties": { "OBJECTID_1": 234, "LIB_NAME": "고척1동 마을문고", "ADDR": "구로구 고척동 82-9", "OPEN_DAY": "2001.1.1", "LBCE": "6", "LB_TYPE": "작은도서관", "MNG_INSTIT": null, "FCLT_AREA": 105.000000, "REMARK": null, "BOOK_COUNT": "8,450", "AREA_PLOT": null, "AREA_BUILD": 105.000000 }, "geometry": { "type": "Point", "coordinates": [ 126.86278991600403, 37.5004057461922 ] } },
{ "type": "Feature", "properties": { "OBJECTID_1": 235, "LIB_NAME": "반포본동 작은도서관", "ADDR": "서초구 반포동 1130", "OPEN_DAY": "2000..", "LBCE": "33", "LB_TYPE": "작은도서관", "MNG_INSTIT": null, "FCLT_AREA": 83.000000, "REMARK": null, "BOOK_COUNT": "13,319", "AREA_PLOT": null, "AREA_BUILD": 83.000000 }, "geometry": { "type": "Point", "coordinates": [ 126.98611702305251, 37.500513447100765 ] } },
{ "type": "Feature", "properties": { "OBJECTID_1": 236, "LIB_NAME": "상도4동마을문고", "ADDR": "동작구 상도4동 188-81", "OPEN_DAY": "2001.1.1", "LBCE": "6", "LB_TYPE": "작은도서관", "MNG_INSTIT": null, "FCLT_AREA": 36.000000, "REMARK": null, "BOOK_COUNT": "3,194", "AREA_PLOT": null, "AREA_BUILD": 36.000000 }, "geometry": { "type": "Point", "coordinates": [ 126.93776403774629, 37.500584365454763 ] } },
{ "type": "Feature", "properties": { "OBJECTID_1": 237, "LIB_NAME": "국립어린이청소년도서관", "ADDR": "강남구역삼동635-1", "OPEN_DAY": "‘06.6.28", "LBCE": "275", "LB_TYPE": "국립", "MNG_INSTIT": null, "FCLT_AREA": 8035.000000, "REMARK": null, "BOOK_COUNT": "458,972(‘12.10.31)", "AREA_PLOT": "20,091", "AREA_BUILD": 8035.000000 }, "geometry": { "type": "Point", "coordinates": [ 127.02959815772864, 37.500867353315741 ] } },
{ "type": "Feature", "properties": { "OBJECTID_1": 238, "LIB_NAME": "생각쟁이 작은도서관", "ADDR": "송파구 마천동 17-8 2층", "OPEN_DAY": "2013.1.4", "LBCE": "10", "LB_TYPE": "작은도서관", "MNG_INSTIT": null, "FCLT_AREA": 81.000000, "REMARK": null, "BOOK_COUNT": "1,050", "AREA_PLOT": null, "AREA_BUILD": 81.000000 }, "geometry": { "type": "Point", "coordinates": [ 127.14449014622689, 37.501225990933627 ] } },
{ "type": "Feature", "properties": { "OBJECTID_1": 239, "LIB_NAME": "신길5동새마을문고", "ADDR": "영등포구 신길5동 422번지", "OPEN_DAY": "2006.1.4", "LBCE": "6", "LB_TYPE": "작은도서관", "MNG_INSTIT": null, "FCLT_AREA": 36.000000, "REMARK": null, "BOOK_COUNT": "14,444", "AREA_PLOT": null, "AREA_BUILD": 36.000000 }, "geometry": { "type": "Point", "coordinates": [ 126.90526053754833, 37.50161154048633 ] } },
{ "type": "Feature", "properties": { "OBJECTID_1": 240, "LIB_NAME": "상도SH-Ville작은도서관", "ADDR": "동작구 상도동 430 주민공동시설 지하2층", "OPEN_DAY": "2009.12.29", "LBCE": "12", "LB_TYPE": "작은도서관", "MNG_INSTIT": null, "FCLT_AREA": 110.000000, "REMARK": null, "BOOK_COUNT": "2,700", "AREA_PLOT": null, "AREA_BUILD": 110.000000 }, "geometry": { "type": "Point", "coordinates": [ 126.95086350303116, 37.502014129631014 ] } },
{ "type": "Feature", "properties": { "OBJECTID_1": 241, "LIB_NAME": "래미안상도3차아파트문고", "ADDR": "동작구 상도동 431번지 래미안상도3차", "OPEN_DAY": "2006.5.11", "LBCE": "30", "LB_TYPE": "작은도서관", "MNG_INSTIT": null, "FCLT_AREA": 131.000000, "REMARK": null, "BOOK_COUNT": "7,871", "AREA_PLOT": null, "AREA_BUILD": 131.000000 }, "geometry": { "type": "Point", "coordinates": [ 126.9509946574906, 37.502064640432756 ] } },
{ "type": "Feature", "properties": { "OBJECTID_1": 242, "LIB_NAME": "예향 작은도서관", "ADDR": "구로구 고척동 145-209", "OPEN_DAY": "2013.12.17", "LBCE": "10", "LB_TYPE": "작은도서관", "MNG_INSTIT": null, "FCLT_AREA": 39.600000, "REMARK": null, "BOOK_COUNT": "1,200", "AREA_PLOT": null, "AREA_BUILD": 39.600000 }, "geometry": { "type": "Point", "coordinates": [ 126.85785613596845, 37.502014513940864 ] } },
{ "type": "Feature", "properties": { "OBJECTID_1": 243, "LIB_NAME": "소나무언덕4호 작은도서관", "ADDR": "송파구 송파동 173-21", "OPEN_DAY": "2010.5.31", "LBCE": "80", "LB_TYPE": "작은도서관", "MNG_INSTIT": null, "FCLT_AREA": 246.000000, "REMARK": null, "BOOK_COUNT": "13,641", "AREA_PLOT": null, "AREA_BUILD": 246.000000 }, "geometry": { "type": "Point", "coordinates": [ 127.11681140429079, 37.502193648652884 ] } },
{ "type": "Feature", "properties": { "OBJECTID_1": 244, "LIB_NAME": "행복한도서관", "ADDR": "강남구영동대로65길24 (대치2동980-9대치2동주민센터3층)", "OPEN_DAY": "‘06.09.16", "LBCE": "142", "LB_TYPE": "구립", "MNG_INSTIT": "(사)작은도서관만드는사람들", "FCLT_AREA": 330.000000, "REMARK": null, "BOOK_COUNT": "38,064", "AREA_PLOT": "3,261", "AREA_BUILD": 330.000000 }, "geometry": { "type": "Point", "coordinates": [ 127.06415542220518, 37.502273625430092 ] } },
{ "type": "Feature", "properties": { "OBJECTID_1": 245, "LIB_NAME": "상도1동마을문고", "ADDR": "동작구 상도1동 437", "OPEN_DAY": "2004.1.1", "LBCE": "8", "LB_TYPE": "작은도서관", "MNG_INSTIT": null, "FCLT_AREA": 45.600000, "REMARK": null, "BOOK_COUNT": "4,653", "AREA_PLOT": null, "AREA_BUILD": 45.600000 }, "geometry": { "type": "Point", "coordinates": [ 126.95161424265608, 37.502317177434946 ] } },
{ "type": "Feature", "properties": { "OBJECTID_1": 246, "LIB_NAME": "송파2동새마을문고", "ADDR": "송파구 송파동 동주민센터 2층", "OPEN_DAY": "1994..", "LBCE": "20", "LB_TYPE": "작은도서관", "MNG_INSTIT": null, "FCLT_AREA": 33.000000, "REMARK": null, "BOOK_COUNT": "10,101", "AREA_PLOT": null, "AREA_BUILD": 33.000000 }, "geometry": { "type": "Point", "coordinates": [ 127.11673500054734, 37.502335000006504 ] } },
{ "type": "Feature", "properties": { "OBJECTID_1": 247, "LIB_NAME": "송파도서관", "ADDR": "송파구오금동51", "OPEN_DAY": "‘94.12.14", "LBCE": "1176", "LB_TYPE": "시립", "MNG_INSTIT": "교육청 소속", "FCLT_AREA": 8472.000000, "REMARK": null, "BOOK_COUNT": "220,274", "AREA_PLOT": "6,470", "AREA_BUILD": 8472.000000 }, "geometry": { "type": "Point", "coordinates": [ 127.13045529097215, 37.502402818444502 ] } },
{ "type": "Feature", "properties": { "OBJECTID_1": 248, "LIB_NAME": "구립반포도서관", "ADDR": "서초구 고무래로 34", "OPEN_DAY": "‘13.03.12", "LBCE": "130", "LB_TYPE": "구립", "MNG_INSTIT": "고려대학교민족문화연구원", "FCLT_AREA": 3593.000000, "REMARK": null, "BOOK_COUNT": "33,535", "AREA_PLOT": "1,320", "AREA_BUILD": 3593.000000 }, "geometry": { "type": "Point", "coordinates": [ 127.01251265096158, 37.502488605106961 ] } },
{ "type": "Feature", "properties": { "OBJECTID_1": 249, "LIB_NAME": "헤브론", "ADDR": "송파구 마천동 15-6 1층", "OPEN_DAY": "2013.2.19", "LBCE": "20", "LB_TYPE": "작은도서관", "MNG_INSTIT": null, "FCLT_AREA": 60.000000, "REMARK": null, "BOOK_COUNT": "2,500", "AREA_PLOT": null, "AREA_BUILD": 60.000000 }, "geometry": { "type": "Point", "coordinates": [ 127.14376409214518, 37.502401787422322 ] } },
{ "type": "Feature", "properties": { "OBJECTID_1": 250, "LIB_NAME": "가락중", "ADDR": "송파구 송이로45", "OPEN_DAY": "‘06. 3", "LBCE": "0", "LB_TYPE": "학교도서관개방", "MNG_INSTIT": "송파", "FCLT_AREA": 324.000000, "REMARK": null, "BOOK_COUNT": "22,380", "AREA_PLOT": null, "AREA_BUILD": 324.000000 }, "geometry": { "type": "Point", "coordinates": [ 127.11875254288937, 37.502487242963134 ] } },
{ "type": "Feature", "properties": { "OBJECTID_1": 251, "LIB_NAME": "서초4동 작은도서관", "ADDR": "서초구 서초동 1302-6", "OPEN_DAY": "1995..", "LBCE": "12", "LB_TYPE": "작은도서관", "MNG_INSTIT": null, "FCLT_AREA": 77.000000, "REMARK": null, "BOOK_COUNT": "10,496", "AREA_PLOT": null, "AREA_BUILD": 77.000000 }, "geometry": { "type": "Point", "coordinates": [ 127.02218897396408, 37.502670989025276 ] } },
{ "type": "Feature", "properties": { "OBJECTID_1": 252, "LIB_NAME": "삼전동새마을문고", "ADDR": "송파구 삼전동 동주민센터 2층", "OPEN_DAY": "1994..", "LBCE": "20", "LB_TYPE": "작은도서관", "MNG_INSTIT": null, "FCLT_AREA": 33.000000, "REMARK": null, "BOOK_COUNT": "13,489", "AREA_PLOT": null, "AREA_BUILD": 33.000000 }, "geometry": { "type": "Point", "coordinates": [ 127.09250999993951, 37.502689999998204 ] } },
{ "type": "Feature", "properties": { "OBJECTID_1": 253, "LIB_NAME": "함께하는문고", "ADDR": "영등포구 대림3동 651-7번지 2층", "OPEN_DAY": "2005.12.14", "LBCE": "15", "LB_TYPE": "작은도서관", "MNG_INSTIT": null, "FCLT_AREA": 42.000000, "REMARK": null, "BOOK_COUNT": "3,021", "AREA_PLOT": null, "AREA_BUILD": 42.000000 }, "geometry": { "type": "Point", "coordinates": [ 126.89680871535127, 37.502764954855181 ] } },
{ "type": "Feature", "properties": { "OBJECTID_1": 254, "LIB_NAME": "은성도서관", "ADDR": "구로구 개봉동 개봉동 97-26", "OPEN_DAY": "2013.4.13", "LBCE": "18", "LB_TYPE": "작은도서관", "MNG_INSTIT": null, "FCLT_AREA": 39.670000, "REMARK": null, "BOOK_COUNT": "3,500", "AREA_PLOT": null, "AREA_BUILD": 39.670000 }, "geometry": { "type": "Point", "coordinates": [ 126.84642325589988, 37.502739027771327 ] } },
{ "type": "Feature", "properties": { "OBJECTID_1": 255, "LIB_NAME": "소나무언덕잠실본동작은도서관", "ADDR": "송파구 탄천동로 211 잠실빗물펌프장 1~2층", "OPEN_DAY": "‘11.11.16", "LBCE": "80", "LB_TYPE": "구립", "MNG_INSTIT": "한국지역사회교육협의회", "FCLT_AREA": 510.000000, "REMARK": null, "BOOK_COUNT": "12,754", "AREA_PLOT": "510", "AREA_BUILD": 510.000000 }, "geometry": { "type": "Point", "coordinates": [ 127.07868000010374, 37.502989999700475 ] } },